     2.11           OBSERVATION DATA    G (GPS)             RINEX VERSION / TYPE
HEADER CHANGED BY EPN CB ON 2015-06-05                      COMMENT
TO BE CONFORM WITH THE INFORMATION IN                       COMMENT
ftp://epncb.oma.be/pub/station/log/bor1.log                 COMMENT
                                                            COMMENT
teqc  2013Mar15     M.LEHMANN/NetRS     20150318 00:10:19UTCPGM / RUN BY / DATE
Linux 2.4.21-27.ELsmp|Opteron|gcc -static|Linux x86_64|=+   COMMENT
teqc  2013Mar15                         20150318 00:10:18UTCCOMMENT
BIT 2 OF LLI FLAGS DATA COLLECTED UNDER A/S CONDITION       COMMENT
BOR1                                                        MARKER NAME
12205M002                                                   MARKER NUMBER
automatic           SRC PAS BOROWIEC                        OBSERVER / AGENCY
4623116529          TRIMBLE NETRS       1.2-0  Apr 26 2007  REC # / TYPE / VERS
418                 AOAD/M_T        NONE                    ANT # / TYPE
  3738358.5958  1148173.5785  5021815.7483                  APPROX POSITION XYZ
        0.0624        0.0000        0.0000                  ANTENNA: DELTA H/E/N
     1     1                                                WAVELENGTH FACT L1/2
     5    C1    L1    L2    P2    P1                        # / TYPES OF OBSERV
    16                                                      LEAP SECONDS
 SNR is mapped to RINEX snr flag value [0-9]                COMMENT
  L1 & L2: min(max(int(snr_dBHz/6), 0), 9)                  COMMENT
  2015     3    17     0     0    0.0000000     GPS         TIME OF FIRST OBS
                                                            END OF HEADER
 15  3 17  0  0  0.0000000  0  9G21G27G07G18G19G22G13G16G15
  21615635.4844  -19295474.97648 -14310934.01847  21615629.3404
  21230085.0554  -20441026.37448 -15874387.33847  21230081.7384
  24292098.8364   -6818171.21846  -4935272.95044  24292093.3834
  21551347.6724  -21291274.11948 -16163569.26346  21551342.1454
  23440508.6334   -9817008.96247  -7598127.56345  23440502.3244
  22853059.0004  -12847427.52847  -9954817.92245  22853052.2114
  24691781.0864   -3042918.63946   -604138.15843  24691777.6454
  20961479.9924  -21841133.65948 -15936274.38147  20961474.3404
  24295758.6804   -5251418.63947  -3598914.15344  24295753.9024
 15  3 17  0  0 30.0000000  0  9G21G27G07G18G19G22G13G16G15
  21624353.1884  -19249664.60648 -14275237.64047  21624347.1374
  21217966.0704  -20504711.03148 -15924011.73847  21217962.9694
  24289613.0164   -6831235.53246  -4945452.92844  24289607.1134
  21543474.9534  -21332644.04748 -16195805.55147  21543469.5864
  23421941.0944   -9914579.87547  -7674156.82645  23421934.8674
  22834822.8984  -12943256.69447 -10029489.96245  22834816.3794
  24688577.8674   -3059757.33946   -617259.22143  24688573.3914
  20965919.8914  -21817802.24448 -15918094.06547  20965914.1914
  24286903.7424   -5297950.15646  -3635172.39744  24286899.4804
 15  3 17  0  1  0.0000000  0  9G21G27G07G18G19G22G13G16G15
  21633120.4304  -19203590.25548 -14239335.55947  21633114.4734
  21205905.7194  -20568088.46248 -15973396.73747  21205902.4184
  24287233.9304   -6843734.51546  -4955192.39344  24287228.6914
  21535690.2894  -21373553.58448 -16227683.09847  21535684.8874
  23403400.1884  -10012013.86646  -7750079.41745  23403393.4414
  22816631.0634  -13038854.42147 -10103981.65645  22816624.7194
  24685481.0164   -3076030.54546   -629939.64543  24685476.8754
  20970471.9064  -21793880.12648 -15899453.46847  20970466.2114
  24278135.8524   -5344022.48546  -3671072.83544  24278132.1524
 15  3 17  0  1 30.0000000  0  9G21G27G07G18G19G22G13G16G15
  21641942.3524  -19157232.67148 -14203212.77747  21641935.9574
  21193907.9614  -20631136.50348 -16022525.07447  21193904.7304
  24284966.9694   -6855647.29346  -4964475.09544  24284961.6604
  21527997.1024  -21413981.01448 -16259184.97247  21527991.6604
  23384889.2504  -10109289.14946  -7825878.29745  23384883.4064
  22798488.3524  -13134197.61747 -10178275.01845  22798481.1684
  24682495.6334   -3091716.35846   -642162.35443  24682491.1884
  20975140.6414  -21769347.17648 -15880336.90447  20975134.5904
  24269460.7114   -5389612.97346  -3706597.85144  24269456.0474
 15  3 17  0  2  0.0000000  0  9G21G27G07G18G19G22G13G16G15
  21650815.7814  -19110602.69148 -14166877.72847  21650809.5944
  21181971.4694  -20693863.28648 -16071403.07847  21181968.3244
  24282809.6484   -6866983.92146  -4973308.84144  24282803.8404
  21520394.0084  -21453935.38248 -16290318.22547  21520388.5554
  23366407.3444  -10206413.60346  -7901559.66145  23366400.9344
  22780391.6724  -13229294.12247 -10252376.16145  22780385.0554
  24679620.0004   -3106823.77146   -653934.36443  24679615.8754
  20979923.3524  -21744213.76248 -15860752.43447  20979917.6484
  24260875.5554   -5434728.95046  -3741753.11544  24260870.9614
 15  3 17  0  2 30.0000000  0  9G21G27G07G18G19G22G13G16G15
  21659740.6804  -19063701.68448 -14130331.49447  21659734.7664
  21170097.4384  -20756267.45048 -16120029.69847  21170093.8874
  24280762.4614   -6877744.21746  -4981693.50744  24280756.4964
  21512881.3834  -21493415.02648 -16321081.55947  21512876.0354
  23347954.2734  -10303386.12746  -7977122.62045  23347947.5124
  22762343.0314  -13324141.16847 -10326282.90345  22762335.8984
  24676855.5164   -3121351.91946   -665255.00943  24676851.5314
  20984820.1804  -21718480.51148 -15840700.55847  20984814.8444
  24252381.0314   -5479368.73846  -3776537.35144  24252376.0084
 15  3 17  0  3  0.0000000  0  9G21G27G07G18G19G22G13G16G15
  21668717.2034  -19016531.16148 -14093575.24946  21668710.7584
  21158282.4924  -20818347.62948 -16168403.84147  21158280.0864
  24278824.0864   -6887928.04846  -4989628.95944  24278819.0744
  21505459.0234  -21532419.69448 -16351474.79646  21505454.1374
  23329530.0944  -10400205.33646  -8052566.11445  23329523.6914
  22744342.2734  -13418736.73447 -10399993.69445  22744335.2544
  24674202.5084   -3135300.48046   -676123.99843  24674196.7424
  20989831.0474  -21692148.26548 -15820181.93547  20989825.2854
  24243977.4304   -5523530.24546  -3810948.86944  24243972.4184
 15  3 17  0  3 30.0000000  0  9G21G27G07G18G19G22G13G16G15
  21677744.6954  -18969090.55148 -14056608.54447  21677738.3914
  21146531.6174  -20880101.52848 -16216523.74347  21146528.6454
  24276995.2194   -6897534.74046  -4997114.65044  24276990.8834
  21498127.3444  -21570947.42548 -16381496.38747  21498122.0164
  23311135.6334  -10496869.00647  -8127888.42445  23311129.0434
  22726389.4064  -13513077.98847 -10473506.33345  22726382.2734
  24671658.9534   -3148667.55946   -686539.84943  24671653.7344
  20994955.8054  -21665217.54948 -15799196.97047  20994950.4654
  24235664.8914   -5567210.49946  -3844985.36144  24235660.7424
 15  3 17  0  4  0.0000000  0  9G21G27G07G18G19G22G13G16G15
  21686823.2504  -18921380.81848 -14019432.13747  21686817.1994
  21134843.2114  -20941527.19348 -16264387.88947  21134839.4344
  24275278.0704   -6906563.60846  -5004150.15344  24275272.6374
  21490886.7814  -21608996.58948 -16411145.06147  21490881.2304
  23292770.7814  -10593375.26947  -8203088.08745  23292764.6024
  22708485.9144  -13607162.49347 -10546818.90445  22708478.9884
  24669226.6334   -3161452.17346   -696501.85843  24669220.6174
  21000194.6484  -21637688.43748 -15777745.72647  21000188.7504
  24227443.9224   -5610407.30746  -3878645.13244  24227439.9494
 15  3 17  0  4 30.0000000  0  9G21G27G07G18G19G22G13G16G15
  21695952.7194  -18873405.06848 -13982048.44647  21695946.5744
  21123216.1094  -21002624.72948 -16311996.34447  21123212.8324
  24273668.5634   -6915016.15246  -5010736.51443  24273664.1334
  21483737.3984  -21646568.05048 -16440421.51147  21483732.1254
  23274436.1884  -10689724.42246  -8278165.32745  23274428.9884
  22690631.5784  -13700988.94647 -10619930.41245  22690624.1644
  24666904.0314   -3173655.35847   -706010.83443  24666899.6564
  21005546.4304  -21609563.61248 -15755830.28547  21005540.2544
  24219316.6564   -5653119.97447  -3911927.66344  24219311.8164
 15  3 17  0  5  0.0000000  0  9G21G27G07G18G19G22G13G16G15
  21705133.0634  -18825163.67448 -13944457.75846  21705126.9384
  21111652.7344  -21063392.15348 -16359347.56947  21111648.9694
  24272170.4454   -6922892.10546  -5016873.58743  24272164.6684
  21476678.6804  -21683660.52848 -16469324.72847  21476673.2424
  23256132.3834  -10785914.34047  -8353118.49045  23256125.0824
  22672825.7584  -13794554.59547 -10692838.65545  22672819.3834
  24664692.9844   -3185275.39347   -715065.42643  24664687.8364
  21011011.6954  -21580842.88348 -15733450.51947  21011005.9064
  24211281.7274   -5695346.03147  -3944831.03944  24211277.6804
 15  3 17  0  5 30.0000000  0  9G21G27G07G18G19G22G13G16G15
  21714363.5314  -18776656.71048 -13906660.13247  21714357.4884
  21100152.2194  -21123827.13149 -16406439.75147  21100148.7344
  24270781.4384   -6930190.66446  -5022560.71244  24270776.2544
  21469711.6484  -21720271.98048 -16497853.11747  21469706.4574
  23237858.0474  -10881943.07747  -8427946.04145  23237851.6604
  22655071.2894  -13887856.63047 -10765541.49845  22655064.1024
  24662592.8914   -3196310.92946   -723664.49143  24662587.2234
  21016590.5394  -21551526.36248 -15710606.47947  21016584.8244
  24203339.5474   -5737082.81847  -3977353.20044  24203334.8244
 15  3 17  0  6  0.0000000  0  9G21G27G07G18G19G22G13G16G15
  21723644.2344  -18727885.70348 -13868656.75746  21723638.2584
  21088714.9924  -21183928.31448 -16453271.83647  21088712.1254
  24269503.1174   -6936911.90646  -5027798.07344  24269497.3404
  21462836.5314  -21756401.86848 -16526006.25747  21462831.2584
  23219615.4454  -10977809.00647  -8502646.73745  23219608.8284
  22637367.3674  -13980893.00647 -10838037.34945  22637359.8284
  24660604.0704   -3206761.56546   -731807.85143  24660598.3834
  21022282.5004  -21521614.98548 -15687298.92247  21022276.8364
  24195490.5004   -5778328.45547  -4009492.62544  24195485.2344
 15  3 17  0  6 30.0000000  0  9G21G27G07G18G19G22G13G16G15
  21732974.8834  -18678851.86848 -13830448.59047  21732968.9734
  21077342.2504  -21243694.40048 -16499842.80947  21077339.2894
  24268333.1644   -6943056.33846  -5032585.91743  24268327.7814
  21456052.9694  -21792049.51148 -16553783.62647  21456047.9144
  23201403.6094  -11073511.20847  -8577219.86345  23201397.0594
  22619713.7664  -14073661.50347 -10910324.46445  22619707.0434
  24658726.7734   -3216627.02546   -739495.26843  24658720.7154
  21028087.1484  -21491109.90748 -15663528.75147  21028081.9734
  24187734.7424   -5819081.01647  -4041247.82643  24187729.5824
 15  3 17  0  7  0.0000000  0  9G21G27G07G18G19G22G13G16G15
  21742356.1174  -18629555.19348 -13792035.60447  21742349.8794
  21066033.4384  -21303122.70048 -16546150.56547  21066030.3014
  24267273.7114   -6948622.77046  -5036923.29743  24267268.3984
  21449361.8834  -21827212.34248 -16581183.21647  21449356.5744
  23183224.0314  -11169046.75647  -8651663.12745  23183217.7304
  22602111.5634  -14166158.68347 -10982400.15846  22602105.0664
  24656961.0944   -3225905.43946   -746725.17743  24656954.9614
  21034005.4614  -21460010.98348 -15639295.84847  21033999.4344
  24180074.1884   -5859337.50347  -4072616.45444  24180070.1564
 15  3 17  0  7 30.0000000  0  9G21G27G07G18G19G22G13G16G15
  21751786.4534  -18579997.87248 -13753419.52446  21751780.3984
  21054788.8284  -21362213.06348 -16592194.98647  21054785.3524
  24266323.5784   -6953612.73346  -5040811.59043  24266318.7234
  21442762.4534  -21861891.38148 -16608205.82747  21442756.9224
  23165075.3524  -11264415.68246  -8725976.55145  23165069.3324
  22584562.4614  -14258383.82347 -11054263.86446  22584554.8794
  24655307.0314   -3234597.27646   -753497.98943  24655300.7704
  21040035.7424  -21428320.46748 -15614601.94347  21040030.2154
  24172508.4144   -5899097.47647  -4103598.19344  24172504.1294
 15  3 17  0  8  0.0000000  0  9G21G27G07G18G19G22G13G16G15
  21761266.3444  -18530181.03148 -13714601.21446  21761260.2854
  21043608.9384  -21420963.85948 -16637974.82447  21043605.6414
  24265484.0944   -6958025.91346  -5044250.43544  24265478.9104
  21436255.6334  -21896085.42548 -16634850.52247  21436250.1764
  23146959.8594  -11359616.38047  -8800158.90745  23146952.9264
  22567064.2814  -14350334.35347 -11125913.58946  22567057.6684
  24653764.4534   -3242702.03246   -759813.43743  24653758.9064
  21046178.7894  -21396039.30448 -15589447.80447  21046172.9384
  24165037.5474   -5938358.60647  -4134191.19544  24165033.0554
 15  3 17  0  8 30.0000000  0  9G21G27G07G18G19G22G13G16G15
  21770795.4454  -18480105.17048 -13675581.07246  21770789.2814
  21032493.9224  -21479373.06648 -16683488.47147  21032490.8524
  24264755.2504   -6961862.17946  -5047239.75244  24264748.8554
  21429841.2504  -21929793.40748 -16661116.47347  21429835.4734
  23128876.3754  -11454646.77147  -8874208.53245  23128869.9574
  22549619.4454  -14442007.72647 -11197347.34646  22549613.1254
  24652334.2274   -3250218.74746   -765670.59643  24652328.2704
  21052433.8674  -21363167.83848 -15563833.69147  21052428.3284
  24157661.7894   -5977118.52147  -4164393.66144  24157657.8284
 15  3 17  0  9  0.0000000  0  9G21G27G07G18G19G22G13G16G15
  21780373.3834  -18429771.53048 -13636360.05746  21780367.5274
  21021444.1954  -21537439.42548 -16728734.97547  21021441.1454
  24264134.2504   -6965121.91646  -5049779.78444  24264128.6884
  21423519.5554  -21963014.39748 -16687002.94047  21423513.8404
  23110825.2894  -11549505.46547  -8948124.35345  23110818.9384
  22532227.7814  -14533401.83247 -11268563.50046  22532221.7774
  24651015.7814   -3257147.10046   -771069.33342  24651010.1564
  21058801.4454  -21329707.45148 -15537760.66847  21058795.8554
  24150381.3754   -6015375.72946  -4194204.41244  24150378.0474
 15  3 17  0  9 30.0000000  0  9G21G27G07G18G19G22G13G16G15
  21790000.6804  -18379180.66448 -13596938.60846  21789994.7974
  21010460.4844  -21595160.75748 -16773712.62447  21010457.1684
  24263624.0314   -6967804.81746  -5051870.34344  24263618.6374
  21417290.5864  -21995747.13948 -16712508.96547  21417285.0634
  23092807.2814  -11644190.88947  -9021905.19045  23092800.4844
  22514890.1724  -14624513.62947 -11339559.66546  22514883.1134
  24649809.9454   -3263485.79546   -776008.57942  24649803.7774
  21065280.6334  -21295658.08148 -15511228.71247  21065275.0744
  24143197.8284   -6053127.56146  -4223621.36244  24143193.6094
 15  3 17  0 10  0.0000000  0  9G21G27G07G18G19G22G13G16G15
  21799676.3594  -18328334.97048 -13557318.60546  21799670.4144
  20999542.2504  -21652536.13748 -16818420.71847  20999539.0314
  24263223.3674   -6969911.71846  -5053512.04944  24263218.1564
  21411155.1254  -22027991.68348 -16737634.57046  21411149.6454
  23074821.9454  -11738701.69647  -9095549.95945  23074815.7344
  22497606.0234  -14715341.52247 -11410334.61946  22497598.9264
  24648715.6804   -3269235.10246   -780488.51843  24648709.7854
  21071871.5784  -21261021.69948 -15484239.34347  21071866.2934
  24136109.9534   -6090373.10146  -4252643.77943  24136105.4734
 15  3 17  0 10 30.0000000  0  9G21G27G07G18G19G22G13G16G15
  21809400.5004  -18277234.07148 -13517499.72046  21809394.1644
  20988690.2734  -21709563.58248 -16862857.68247  20988687.0514
  24262931.5704   -6971442.20846  -5054704.67244  24262927.5784
  21405111.6804  -22059746.39548 -16762378.49147  21405106.4064
  23056871.3204  -11833035.94247  -9169057.16445  23056864.5704
  22480376.5314  -14805883.03047 -11480886.39946  22480369.5704
  24647733.5234   -3274393.97646   -784508.39442  24647727.9304
  21078574.5004  -21225798.61748 -15456792.79947  21078569.1134
  24129118.6094   -6127109.86446  -4281269.78943  24129114.2774
 15  3 17  0 11  0.0000000  0  9G21G27G07G18G19G22G13G16G15
  21819172.7664  -18225879.12848 -13477482.87746  21819166.8754
  20977904.7734  -21766241.66748 -16907022.41047  20977901.9024
  24262750.4844   -6972397.01246  -5055448.69344  24262744.2854
  21399162.5864  -22091010.40448 -16786740.04347  21399156.9844
  23038953.8364  -11927192.28347  -9242425.70645  23038946.8594
  22463201.7894  -14896136.02547 -11551213.37346  22463195.0394
  24646864.0084   -3278961.94446   -788067.89942  24646859.3094
  21085388.6024  -21189990.19348 -15428890.15247  21085382.9844
  24122224.4694   -6163336.06146  -4309497.99343  24122219.3984
 15  3 17  0 11 30.0000000  0  9G21G27G07G18G19G22G13G16G15
  21828993.5164  -18174270.85548 -13437268.65346  21828987.8204
  20967185.8674  -21822568.44948 -16950913.39947  20967182.7274
  24262678.3594   -6972775.69446  -5055743.77344  24262672.6804
  21393306.8984  -22121783.06148 -16810718.72047  21393301.1804
  23021070.1644  -12021168.79047  -9315654.13345  23021063.5554
  22446082.6024  -14986097.55247 -11621313.22146  22446075.6174
  24646107.8134   -3282938.73646   -791166.66943  24646103.0314
  21092313.9844  -21153597.45148 -15400532.17847  21092308.1884
  24115428.9304   -6199049.62746  -4337326.72943  24115422.4494
 15  3 17  0 12  0.0000000  0  9G21G27G07G18G19G22G13G16G15
  21838862.3204  -18122411.25148 -13396858.58046  21838856.1024
  20956534.7584  -21878542.85248 -16994529.80647  20956531.4344
  24262715.6174   -6972579.06846  -5055590.52644  24262710.8554
  21387544.3834  -22152063.74048 -16834314.03447  21387539.0004
  23003221.9224  -12114964.48647  -9388741.67245  23003214.5274
  22429019.3134  -15075766.09048 -11691184.78346  22429012.5124
  24645463.8914   -3286323.93145   -793804.48042  24645458.6334
  21099350.3364  -21116621.09748 -15371719.45047  21099344.5204
  24108730.7584   -6234249.00346  -4364754.80843  24108725.1334
 15  3 17  0 12 30.0000000  0  9G21G27G07G18G19G22G13G16G15
  21848778.1954  -18070301.36348 -13356253.47646  21848772.2274
  20945950.0704  -21934163.95848 -17037870.92347  20945947.1174
  24262861.6804   -6971807.93346  -5054989.56443  24262857.4774
  21381875.6724  -22181852.48948 -16857526.03247  21381870.3714
  22985408.1724  -12208578.30347  -9461687.48045  22985401.2464
  22412012.0474  -15165139.77048 -11760826.57046  22412005.2774
  24644932.3364   -3289117.94146   -795981.66642  24644926.5394
  21106497.2584  -21079063.32448 -15342453.66547  21106491.8984
  24102130.6884   -6268933.17347  -4391781.36944  24102126.1174
 15  3 17  0 13  0.0000000  0  9G21G27G07G18G19G22G13G16G15
  21858742.0634  -18017942.32448 -13315454.23746  21858736.1524
  20935433.4534  -21989429.50448 -17080934.98547  20935430.1954
  24263117.7114   -6970461.98846  -5053940.76444  24263113.3204
  21376301.1644  -22211148.19248 -16880353.83547  21376295.5864
  22967628.4614  -12302007.89247  -9534489.72945  22967621.7504
  22395061.3284  -15254215.84947 -11830236.47546  22395054.1414
  24644511.9224   -3291319.56546   -797697.22242  24644507.2114
  21113754.5784  -21040924.59648 -15312735.19047  21113749.2704
  24095629.5084   -6303099.60247  -4418404.50144  24095624.6334
 15  3 17  0 13 30.0000000  0  9G21G27G07G18G19G22G13G16G15
  21868752.6884  -17965335.69848 -13274462.06046  21868746.5864
  20924984.5234  -22044338.29048 -17123721.04847  20924981.3954
  24263482.7424   -6968542.35946  -5052444.96744  24263478.6764
  21370820.1884  -22239949.76048 -16902796.58947  21370815.2074
  22949884.9224  -12395252.07547  -9607147.51345  22949878.0514
  22378167.8674  -15342992.24347 -11899412.83546  22378161.3134
  24644206.5784   -3292928.83446   -798951.22542  24644201.4304
  21121122.8914  -21002206.41548 -15282565.18347  21121117.1024
  24089227.0004   -6336746.47947  -4444622.81844  24089221.9964
 15  3 17  0 14  0.0000000  0  9G21G27G07G18G19G22G13G16G15
  21878810.8134  -17912480.49548 -13233276.19646  21878804.7894
  20914604.2034  -22098888.09148 -17166227.37347  20914600.9654
  24263958.3914   -6966048.25546  -5050501.46944  24263953.3324
  21365433.8914  -22268256.19748 -16924853.54447  21365428.2424
  22932176.5784  -12488308.60147  -9679659.07445  22932170.3594
  22361331.6954  -15431466.25147 -11968353.58546  22361324.9344
  24644012.8754   -3293944.69245   -799742.82042  24644008.1254
  21128600.8054  -20962909.22848 -15251944.00547  21128595.2234
  24082923.8054   -6369872.20947  -4470435.03444  24082918.4734
 15  3 17  0 14 30.0000000  0  9G21G27G07G18G19G22G13G16G15
  21888915.9614  -17859378.62948 -13191898.13746  21888909.8984
  20904292.0784  -22153077.67748 -17208453.01647  20904289.0944
  24264541.7664   -6962980.89046  -5048111.30544  24264536.9964
  21360141.3524  -22296067.16948 -16946524.41847  21360135.5744
  22914504.8444  -12581176.28947  -9752023.47845  22914497.9774
  22344553.5084  -15519635.96948 -12037057.21546  22344546.9104
  24643933.5634   -3294367.39446   -800072.21442  24643927.9734
  21136188.7664  -20923034.25548 -15220872.59247  21136183.1454
  24076719.1174   -6402475.02946  -4495839.76344  24076714.7854
 15  3 17  0 15  0.0000000  0  9G21G27G07G18G19G22G13G16G15
  21899067.7034  -17806030.16548 -13150327.92046  21899061.6174
  20894049.5704  -22206904.74248 -17250396.17647  20894046.1644
  24265233.8524   -6959339.60446  -5045273.93044  24265229.4534
  21354944.0784  -22323381.22448 -16967808.07747  21354938.2154
  22896868.1174  -12673852.80047  -9824238.91945  22896861.7464
  22327833.8284  -15607498.56048 -12105521.53546  22327826.9884
  24643966.1644   -3294195.78445   -799938.48242  24643960.8324
  21143886.5944  -20882582.26448 -15189351.57647  21143880.9184
  24070613.9454   -6434552.55346  -4520835.16844  24070610.4534
 15  3 17  0 15 30.0000000  0 10G21G30G27G07G18G19G22G13G16G15
  21909266.1644  -17752437.03548 -13108567.04446  21909259.9844
  25229303.922     -553753.99015
  20883875.5394  -22260368.36148 -17292056.14447  20883872.2934
  24266036.4064   -6955125.37246  -5041990.08544  24266031.3674
  21349840.7114  -22350198.32848 -16988704.51247  21349834.9344
  22879268.5164  -12766336.95747  -9896304.46745  22879262.1454
  22311172.7114  -15695051.79948 -12173744.79046  22311166.0394
  24644111.7344   -3293430.25246   -799341.95342  24644106.2504
  21151693.8674  -20841555.02348 -15157382.32547  21151688.2154
  24064609.2664   -6466103.58446  -4545420.31444  24064606.2894
 15  3 17  0 16  0.0000000  0 10G21G30G27G07G18G19G22G13G16G15
  21919511.1414  -17698600.99448 -13066616.89246  21919505.1334
  25221328.711     -595665.81315
  20873771.0554  -22313467.27448 -17333431.92147  20873767.7624
  24266948.0004   -6950338.92046  -5038260.38044  24266942.8094
  21344831.9614  -22376518.18848 -17009213.46847  21344826.7274
  22861706.8984  -12858627.78547  -9968219.38745  22861700.4454
  22294571.4144  -15782294.22548 -12241725.88646  22294564.1914
  24644370.4534   -3292070.83645   -798282.65442  24644364.5044
  21159610.2274  -20799954.04648 -15124966.01147  21159604.4924
  24058705.5004   -6497127.02346  -4569594.34544  24058703.4144
 15  3 17  0 16 30.0000000  0 10G21G30G27G07G18G19G22G13G16G15
  21929800.9224  -17644526.10748 -13024480.62246  21929794.9224
  25213448.930     -637069.143 5
  20863735.5864  -22366203.66548 -17374525.20347  20863732.2194
  24267966.3284   -6944984.71746  -5034088.23444  24267960.9734
  21339917.8914  -22402343.68448 -17029337.21847  21339912.3984
  22844181.3444  -12950727.18147 -10039985.13045  22844174.3524
  22278028.5164  -15869227.15348 -12309465.79146  22278021.3874
  24644740.9614   -3290121.18946   -796763.49542  24644736.1374
  21167634.8364  -20757784.29948 -15092106.48247  21167629.1414
  24052902.7584   -6527624.36046  -4593358.44344  24052898.7854
 15  3 17  0 17  0.0000000  0 10G21G30G27G07G18G19G22G13G16G15
  21940137.7114  -17590205.78148 -12982153.11346  21940131.2934
  25205668.813     -677955.000 5
  20853770.7894  -22418568.36848 -17415328.87547  20853767.9494
  24269094.9384   -6939055.73846  -5029468.24544  24269089.7504
  21335098.9454  -22427667.14148 -17049069.76647  21335093.0044
  22826693.7114  -13042625.84847 -10111594.44245  22826687.2774
  22261546.4224  -15955841.22947 -12376957.24646  22261539.5394
  24645225.2034   -3287573.50046   -794778.29143  24645220.6604
  21175768.9304  -20715039.64648 -15058798.97047  21175763.6174
  24047200.9384   -6557586.97846  -4616705.88544  24047197.1684
 15  3 17  0 17 30.0000000  0 10G21G30G27G07G18G19G22G13G16G15
  21950520.4534  -17535644.97648 -12939638.21046  21950514.4224
  25197985.867     -718325.826 5
  20843876.3444  -22470563.80048 -17455844.78647  20843873.3954
  24270332.5394   -6932556.35646  -5024403.82544  24270326.9534
  21330375.1334  -22452491.03148 -17068413.04247  21330369.2504
  22809243.5474  -13134326.15047 -10183049.20445  22809236.2584
  22245124.6334  -16042137.74047 -12444201.26046  22245117.5044
  24645824.1724   -3284431.53746   -792330.04342  24645818.0084
  21184011.6024  -20671724.84848 -15025047.18347  21184006.0704
  24041600.9614   -6587016.95247  -4639638.30344  24041596.0704
 15  3 17  0 18  0.0000000  0 10G21G30G27G07G18G19G22G13G16G15
  21960949.1174  -17480841.83848 -12896934.46046  21960942.9534
  25190401.227     -758177.175 4
  20834053.2114  -22522185.07948 -17496069.15647  20834050.1294
  24271677.3754   -6925483.79146  -5018892.75844  24271672.6804
  21325746.5554  -22476812.03148 -17087364.44947  21325741.3444
  22791832.5084  -13225823.30547 -10254345.69745  22791825.5514
  22228764.2034  -16128111.43048 -12511193.71346  22228757.3984
  24646535.6414   -3280691.87346   -789416.08243  24646529.6804
  21192362.6644  -20627838.33348 -14990849.92647  21192357.1764
  24036103.4694   -6615909.44547  -4662151.91444  24036097.1684
 15  3 17  0 18 30.0000000  0 10G21G30G27G07G18G19G22G13G16G15
  21971422.4694  -17425803.08248 -12854047.13446  21971416.5824
  25182918.625
  20824300.4144  -22573436.83348 -17536005.57347  20824297.3244
  24273131.8204   -6917844.81046  -5012940.24744  24273125.8244
  21321213.0944  -22500636.28948 -17105928.79047  21321207.7274
  22774458.9304  -13317121.84647 -10325487.39245  22774452.3444
  22212464.5784  -16213766.10547 -12577937.58846  22212457.6524
  24647359.7974   -3276360.45645   -786040.96542  24647354.1054
  21200821.5084  -20583387.46748 -14956212.90347  21200816.0164
  24030707.1024   -6644269.14947  -4684250.38944  24030700.0354
 15  3 17  0 19  0.0000000  0 10G21G30G27G07G18G19G22G13G16G15
  21981941.0394  -17370529.77548 -12810977.02346  21981934.7774
  25175530.820    -2411753.24815
  20814618.4384  -22624317.27248 -17575652.66547  20814615.2154
  24274692.4224   -6909639.85046  -5006546.79044  24274687.8404
  21316774.1024  -22523962.23948 -17124104.84747  21316768.6884
  22757123.1954  -13408219.81847 -10396472.78645  22757116.8674
  22196226.0634  -16299099.86347 -12644431.39746  22196219.2114
  24648296.4694   -3271437.23646   -782204.67943  24648290.9774
  21209387.4924  -20538373.41648 -14921137.05247  21209381.6954
  24025412.0554   -6672094.27547  -4705932.29844  24025405.2544
 15  3 17  0 19 30.0000000  0 10G21G30G27G07G18G19G22G13G16G15
  21992504.5704  -17315016.80448 -12767720.18646  21992498.3984
  25168241.273    -2450049.476 5
  20805008.0784  -22674819.15948 -17615004.77547  20805004.3594
  24276362.9694   -6900863.88646  -4999708.40744  24276357.9184
  21312431.3054  -22546783.68448 -17141887.76647  21312425.8404
  22739827.1334  -13499109.93947 -10467296.23645  22739820.4734
  22180050.2974  -16384103.77948 -12710668.18446  22180043.9774
  24649347.8204   -3265916.16846   -777902.55743  24649341.9654
  21218061.3984  -20492791.68148 -14885618.82947  21218055.6804
  24020219.3134   -6699377.56646  -4727191.96344  24020214.0434
 15  3 17  0 20  0.0000000  0 10G21G30G27G07G18G19G22G13G16G15
  22003113.1884  -17259267.87548 -12724279.47146  22003107.0514
  25161054.250    -2487823.462 6
  20795469.4224  -22724943.55248 -17654062.73747  20795466.3054
  24278141.0164   -6891520.07047  -4992427.51744  24278136.1884
  21308184.5864  -22569102.75748 -17159279.24047  21308179.1214
  22722570.5784  -13589792.99547 -10537958.34545  22722564.2344
  22163936.8594  -16468778.84547 -12776648.72646  22163930.5084
  24650511.4694   -3259799.80646   -773136.56943  24650506.4024
  21226842.6724  -20446646.40648 -14849661.48347  21226836.8674
  24015129.8364   -6726119.94147  -4748030.13444  24015124.7074
 15  3 17  0 20 30.0000000  0 10G21G30G27G07G18G19G22G13G16G15
  22013766.6334  -17203284.37848 -12680655.97346  22013760.5314
  25153965.4144   -2525074.37046   -110606.53653  25153964.0984
  20786003.4384  -22774689.39048 -17692825.73047  20786000.3164
  24280027.0394   -6881609.60346  -4984705.08544  24280021.7114
  21304032.6024  -22590919.85448 -17176279.56347  21304027.2584
  22705353.9454  -13680267.81947 -10608458.17745  22705347.5664
  22147886.9144  -16553123.39948 -12842371.72846  22147880.0314
  24651788.7894   -3253088.77846   -767907.18943  24651782.9534
  21235730.7734  -20399939.87148 -14813266.80247  21235724.8754
  24010144.7194   -6752320.63047  -4768446.20444  24010139.7074
 15  3 17  0 21  0.0000000  0 10G21G30G27G07G18G19G22G13G16G15
  22024464.0784  -17147067.55348 -12636850.66346  22024458.2304
  25146977.2194   -2561800.83546   -139224.55343  25146975.2194
  20776609.4224  -22824055.08248 -17731292.49047  20776606.0204
  24282020.6414   -6871132.64246  -4976541.17544  24282015.2464
  21299976.6564  -22612234.16948 -17192888.10347  21299971.2544
  22688177.3674  -13770532.61247 -10678794.35245  22688170.8954
  22131899.9614  -16637135.38347 -12907835.57546  22131893.4384
  24653178.9384   -3245783.07746   -762214.50943  24653173.2854
  21244725.1174  -20352672.99948 -14776435.48247  21244719.2734
  24005262.7424   -6777978.37647  -4788439.20144  24005256.9414
 15  3 17  0 21 30.0000000  0 10G21G30G27G07G18G19G22G13G16G15
  22035206.0004  -17090618.06848 -12592864.07046  22035200.1684
  25140088.4694   -2598001.49046   -167432.93743  25140085.7154
  20767288.1334  -22873038.91548 -17769461.70947  20767284.7734
  24284121.8284   -6860090.68447  -4967937.05044  24284116.2894
  21296016.3984  -22633045.21248 -17209104.48947  21296011.4184
  22671040.2974  -13860585.92547 -10748965.74845  22671034.3164
  22115976.8204  -16720812.46348 -12973038.45246  22115970.0124
  24654681.7504   -3237882.59346   -756058.30643  24654676.9184
  21253826.2034  -20304846.88648 -14739168.39547  21253820.4924
  24000483.6484   -6803090.98047  -4808007.44844  24000478.7664
 15  3 17  0 22  0.0000000  0 10G21G30G27G07G18G19G22G13G16G15
  22045991.8834  -17033936.63248 -12548696.73246  22045986.3794
  25133299.2894   -2633674.69946   -195230.26443  25133297.5664
  20758039.9534  -22921639.14148 -17807332.01247  20758036.6414
  24286330.1644   -6848483.95946  -4958892.84444  24286324.9144
  21292152.3134  -22653351.96948 -17224927.92447  21292146.6954
  22653944.5864  -13950425.71247 -10818970.76246  22653938.0164
  22100117.8754  -16804151.99748 -13037978.31846  22100110.6644
  24656298.6484   -3229387.37846   -749438.68643  24656293.7034
  21263033.1484  -20256462.86348 -14701466.55747  21263027.7304
  23995808.1884   -6827657.07947  -4827149.82244  23995803.7034
 15  3 17  0 22 30.0000000  0 10G21G30G27G07G18G19G22G13G16G15
  22056822.3524  -16977025.14148 -12504350.12646  22056816.1604
  25126611.5944   -2668819.85046   -222616.02543  25126609.7584
  20748864.8444  -22969854.85249 -17844902.69347  20748861.5004
  24288646.2814   -6836313.43246  -4949409.24544  24288641.5664
  21288383.4224  -22673154.86048 -17240358.73047  21288378.4494
  22636889.9924  -14040050.88947 -10888808.53246  22636882.8634
  22084323.3364  -16887152.60248 -13102654.08246  22084316.4924
  24658027.8524   -3220297.70146   -742355.89243  24658023.6454
  21272346.3364  -20207523.33048 -14663331.87647  21272340.6564
  23991237.7584   -6851675.78546  -4845865.66244  23991233.3364
 15  3 17  0 23  0.0000000  0 10G21G30G27G07G18G19G22G13G16G15
  22067695.9144  -16919883.83748 -12459824.43746  22067689.7424
  25120025.1024   -2703435.50045   -249589.22042  25120023.2424
  20739763.0554  -23017684.14248 -17882172.26447  20739759.6564
  24291069.6174   -6823579.38746  -4939486.60244  24291064.8954
  21284711.3754  -22692453.29948 -17255396.46647  21284705.8954
  22619875.6954  -14129459.32047 -10958477.41346  22619869.3404
  22068593.9384  -16969811.86848 -13167063.86046  22068586.7074
  24659871.0314   -3210613.49446   -734809.83243  24659865.6174
  21281764.2194  -20158029.45148 -14624765.24147  21281759.0004
  23986771.9924   -6875145.57647  -4864153.77444  23986767.5124
 15  3 17  0 23 30.0000000  0 10G21G30G27G07G18G19G22G13G16G15
  22078612.8204  -16862513.97048 -12415120.65846  22078607.1094
  25113538.2274   -2737520.62845   -276149.01342  25113536.6254
  20730735.1254  -23065125.55748 -17919139.59047  20730731.9454
  24293598.8914   -6810283.57446  -4929126.23144  24293594.4024
  21281134.9924  -22711246.62748 -17270040.59747  21281129.6684
  22602903.4454  -14218649.31347 -11027976.07246  22602896.9224
  22052929.3834  -17052127.52548 -13231205.89346  22052922.4924
  24661826.6334   -3200335.02446   -726800.62243  24661821.7664
  21291288.1724  -20107982.44548 -14585767.58947  21291282.8204
  23982409.8834   -6898065.05946  -4882013.07644  23982405.8134
 15  3 17  0 24  0.0000000  0 10G21G30G27G07G18G19G22G13G16G15
  22089574.2814  -16804913.64448 -12370237.29646  22089567.9804
  25107154.9144                                   25107153.4344
  20721781.9384  -23112174.93848 -17955801.43648  20721779.0084
  24296236.6804   -6796423.92546  -4918326.57144  24296231.3594
  21277655.4844  -22729532.09348 -17284288.99847  21277650.0744
  22585973.7194  -14307616.68648 -11097301.27646  22585966.1414
  22037331.8054  -17134094.86348 -13295076.51746  22037324.4494
  24663897.2504   -3189459.66846   -718326.36043  24663891.1134
  21300917.2194  -20057381.47548 -14546338.27547  21300911.6564
  23978154.7664   -6920430.50046  -4899440.67744  23978149.4144
 15  3 17  0 24 30.0000000  0 10G21G30G27G07G18G19G22G13G16G15
  22100576.7424  -16747092.41948 -12325181.81046  22100571.3634
  25100869.7344   -4379514.81855  -1555624.82352  25100868.7464
  20712902.2034  -23158839.42648 -17992163.36447  20712898.9344
  24298979.8524   -6782009.61446  -4907094.68244  24298974.9224
  21274271.0784  -22747317.97548 -17298148.10547  21274265.5514
  22569084.3984  -14396368.48547 -11166458.50946  22569077.7344
  22021798.4534  -17215720.76148 -13358681.08746  22021791.5354
  24666078.3914   -3177996.59046   -709394.13543  24666072.2034
  21310649.5634  -20006236.82748 -14506485.32447  21310644.0704
  23974002.3754   -6942249.03247  -4916442.08344  23973997.5664
 15  3 17  0 25  0.0000000  0 10G21G30G27G07G18G19G22G13G16G15
  22111623.3204  -16689042.47948 -12279948.10746  22111617.7034
  25094683.8444   -4412001.56755  -1580939.30752  25094688.2074
  20704097.0554  -23205108.57849 -18028217.24547  20704093.9774
  24301829.6174   -6767033.04746  -4895424.70744  24301824.1524
  21270983.2894  -22764594.82248 -17311610.57547  21270978.4304
  22552238.6804  -14484894.17048 -11235439.53046  22552231.4224
  22006332.9614  -17296993.94448 -13422010.80446  22006325.8794
  24668374.0234   -3165936.98646   -699997.07343  24668367.1454
  21320487.1644  -19954541.32548 -14466203.13847  21320481.5704
  23969955.8984   -6963510.66047  -4933009.55944  23969951.3164
 15  3 17  0 25 30.0000000  0 10G21G30G27G07G18G19G22G13G16G15
  22122712.9534  -16630767.16748 -12234538.79046  22122706.8444
  25088607.9694   -4443952.66255  -1605836.21352  25088607.0704
  20695367.7274  -23250983.40449 -18063963.84848  20695364.2304
  24304784.8984   -6751497.27945  -4883318.91344  24304781.4064
  21267792.2194  -22781365.23148 -17324678.42547  21267786.5864
  22535435.8524  -14573194.43348 -11304244.90146  22535428.9144
  21990934.3834  -17377915.15248 -13485066.26346  21990927.2034
  24670780.2504   -3153283.45546   -690137.16143  24670775.5704
  21330428.5704  -19902298.69648 -14425494.61447  21330422.7034
  23966015.9774   -6984216.09947  -4949143.65244  23966011.1604
 15  3 17  0 26  0.0000000  0 10G21G30G27G07G18G19G22G13G16G15
  22133844.5864  -16572267.90548 -12188954.96046  22133839.0864
  25082628.9694   -4475367.28846  -1630315.21342  25082627.8674
  20686713.2274  -23296462.53348 -18099402.11947  20686709.9184
  24307848.2194   -6735403.49646  -4870778.31543  24307843.4654
  21264697.2584  -22797628.62848 -17337351.18547  21264691.8594
  22518676.0164  -14661267.55447 -11372873.29846  22518668.9264
  21975602.5004  -17458482.07048 -13547845.65146  21975595.7234
  24673301.9454   -3140036.33146   -679814.79743  24673296.6644
  21340473.7974  -19849510.87248 -14384361.27747  21340468.0864
  23962182.5004   -7004364.55846  -4964843.70044  23962177.2704
 15  3 17  0 26 30.0000000  0 10G21G30G27G07G18G19G22G13G16G15
  22145019.5864  -16513546.94548 -12143198.37346  22145013.5204
  25076753.4454   -4506245.64446  -1654376.17642  25076751.0044
  20678134.3364  -23341545.91549 -18134532.02847  20678130.8674
  24311015.6174   -6718754.07246  -4857804.71544  24311011.3444
  21261698.5704  -22813386.63748 -17349630.13847  21261693.2814
  22501959.4924  -14749113.54447 -11441324.70046  22501952.5354
  21960339.0234  -17538693.96748 -13610348.39646  21960332.0044
  24675935.4924   -3126197.69546   -669031.42143  24675930.1884
  21350622.3204  -19796181.01648 -14342805.55647  21350616.8014
  23958453.4774   -7023956.42646  -4980110.05044  23958449.2814
 15  3 17  0 27  0.0000000  0 10G21G30G27G07G18G19G22G13G16G15
  22156235.5084  -16454604.27148 -12097269.04046  22156230.0084
  25070980.2894   -4536585.98446  -1678018.02443  25070977.4264
  20669630.7114  -23386231.13549 -18169351.68047  20669627.3874
  24314291.0634   -6701549.28046  -4844398.38244  24314284.9024
  21258796.5314  -22828637.64548 -17361514.03147  21258791.0634
  22485286.3674  -14836729.70647 -11509597.00546  22485279.7974
  21945143.1564  -17618547.94348 -13672572.26346  21945136.2464
  24678681.4774   -3111766.99646   -657786.72343  24678676.1884
  21360873.7034  -19742309.75748 -14300827.98147  21360867.9804
  23954831.5314   -7042989.46946  -4994940.97344  23954826.5084
 15  3 17  0 27 30.0000000  0 10G21G30G27G07G18G19G22G13G16G15
  22167494.4774  -16395440.51348 -12051167.42946  22167488.6524
  25065309.1804   -4566386.71846  -1701239.40842  25065306.7194
  20661203.6804  -23430516.15549 -18203859.48448  20661200.5004
  24317670.8754   -6683789.33246  -4830559.46844  24317664.5434
  21255990.7734  -22843380.86448 -17373002.24847  21255985.2934
  22468657.5554  -14924113.81748 -11577688.49646  22468650.7624
  21930016.0634  -17698041.78648 -13734515.49746  21930009.4774
  24681540.5864   -3096743.65346   -646080.20843  24681534.7344
  21371227.7194  -19687898.32248 -14258429.49347  21371222.4694
  23951316.7584   -7061462.18047  -5009335.24744  23951311.3914
 15  3 17  0 28  0.0000000  0 10G21G30G27G07G18G19G22G13G16G15
  22178794.0234  -16336057.27448 -12004894.77846  22178788.2624
  25059740.8054   -4595647.60246  -1724040.05043  25059739.2384
  20652852.7584  -23474400.32849 -18238054.94547  20652849.4964
  24321155.6334   -6665476.36546  -4816289.65743  24321149.0824
  21253281.7034  -22857617.10748 -17384095.39547  21253276.1644
  22452073.3754  -15011264.68448 -11645598.25946  22452066.7624
  21914957.4064  -17777174.15648 -13796177.07046  21914950.9064
  24684510.5164   -3081129.15546   -633912.99243  24684505.6094
  21381684.2424  -19632949.23648 -14215612.04447  21381678.5084
  23947908.5004   -7079374.05347  -5023292.53544  23947903.0554
 15  3 17  0 28 30.0000000  0 10G21G30G27G07G18G19G22G13G16G15
  22190136.5554  -16276454.34748 -11958450.95346  22190130.6724
  25054276.0554   -4624366.77345  -1746418.70043  25054273.7194
  20644578.5864  -23517881.22449 -18271936.16347  20644575.4064
  24324745.9614   -6646610.25246  -4801588.74343  24324739.6134
  21250669.1024  -22871344.98948 -17394792.44147  21250663.5784
  22435534.3594  -15098179.79747 -11713324.29946  22435527.2234
  21899968.4144  -17855942.12048 -13857554.68946  21899961.3054
  24687595.0234   -3064923.07346   -621284.89743  24687589.7504
  21392242.8524  -19577463.28548 -14172376.27147  21392237.5904
  23944607.2584   -7096723.20247  -5036811.31844  23944601.8444
 15  3 17  0 29  0.0000000  0 10G21G30G27G07G18G19G22G13G16G15
  22201520.0704  -16216633.85948 -11911837.60346  22201513.9884
  25048913.8984   -4652544.25546  -1768375.15943  25048911.8714
  20636381.4844  -23560958.33949 -18305502.75048  20636377.9734
  24328439.9064   -6627193.35246  -4786458.70844  24328434.7304
  21248153.6094  -22884565.89848 -17405094.43147  21248147.9614
  22419039.9454  -15184858.50648 -11780866.13446  22419033.2894
  21885049.0314  -17934344.15448 -13918647.15546  21885041.9844
  24690791.4454   -3048126.57646   -608196.73142  24690786.0594
  21402903.4384  -19521443.25648 -14128724.32747  21402897.9844
  23941411.8674   -7113509.33247  -5049891.40044  23941407.5554
 15  3 17  0 29 30.0000000  0 10G21G30G27G07G18G19G22G13G16G15
  22212944.5554  -16156595.81748 -11865054.71546  22212938.7194
  25043655.0864   -4680178.26146  -1789908.20543  25043653.0664
  20628261.2274  -23603629.27649 -18338752.82748  20628257.7734
  24332239.8524   -6607225.64046  -4770899.41744  24332235.2774
  21245734.8054  -22897278.17848 -17415000.09247  21245729.0984
  22402590.5864  -15271298.32048 -11848221.81346  22402584.2274
  21870199.5784  -18012377.62948 -13979452.42746  21870193.1844
  24694100.1484   -3030739.44546   -594648.35643  24694095.3554
  21413664.9304  -19464889.78848 -14084656.70847  21413659.1564
  23938325.4064   -7129730.53846  -5062531.27044  23938320.7384
 15  3 17  0 30  0.0000000  0 10G21G30G27G07G18G19G22G13G16G15
  22224410.8674  -16096342.44848 -11818104.05546  22224404.7584
  25038499.7664   -4707269.02045  -1811017.86343  25038497.7934
  20620218.7034  -23645893.80249 -18371686.22747  20620215.2734
  24336145.1644   -6586709.53346  -4754912.84844  24336138.9344
  21243412.2034  -22909482.93348 -17424510.28347  21243406.6414
  22386187.4064  -15357498.80348 -11915391.00146  22386181.0554
  21855421.1174  -18090041.71648 -14039969.87746  21855413.8364
  24697521.2504   -3012763.15846   -580640.87443  24697516.1294
  21424527.3204  -19407806.05448 -14040175.90147  21424522.3284
  23935346.6174   -7145386.68846  -5074730.84744  23935341.6254
 15  3 17  0 30 30.0000000  0 10G21G30G27G07G18G19G22G13G16G15
  22235917.6804  -16035873.73748 -11770985.60146  22235911.8014
  25033448.5704   -4733814.92846  -1831702.96743  25033446.6954
  20612253.8754  -23687749.64349 -18404301.17348  20612250.7464
  24340153.0084   -6565645.20046  -4738499.12744  24340147.5164
  21241186.2424  -22921179.36948 -17433624.37747  21241180.7624
  22369829.9614  -15443456.96448 -11982371.35746  22369823.3834
  21840712.5004  -18167333.84848 -14100197.50346  21840705.7074
  24701053.1334   -2994197.56646   -566174.22943  24701049.1954
  21435490.8594  -19350193.14448 -13995282.74646  21435485.3404
  23932474.2114   -7160476.44046  -5086489.06945  23932470.1174
 15  3 17  0 31  0.0000000  0 10G21G30G27G07G18G19G22G13G16G15
  22247464.8834  -15975191.67748 -11723700.87746  22247459.3484
  25028500.8284   -4759816.03246  -1851963.59343  25028499.0084
  20604366.5784  -23729196.45349 -18436597.39147  20604363.0664
  24344264.8754   -6544034.76546  -4721659.81544  24344260.1724
  21239057.1724  -22932368.30448 -17442343.01647  21239051.5004
  22353518.8834  -15529172.54647 -12049162.70146  22353512.5514
  21826075.2424  -18244253.02348 -14160134.49346  21826068.3364
  24704698.3134   -2975044.23046   -551249.59843  24704693.7504
  21446554.4534  -19292053.68848 -13949979.29747  21446549.3164
  23929710.6254   -7174999.74446  -5097805.91044  23929706.2114
 15  3 17  0 31 30.0000000  0 10G21G30G27G07G18G19G22G13G16G15
  22259055.4454  -15914283.72147 -11676240.16146  22259049.5784
  25023659.9224   -4785257.84346  -1871788.36442  25023656.8594
  20596560.3674  -23770218.89149 -18468562.93348  20596556.8634
  24348482.3754   -6521866.28445  -4704385.62044  24348478.9574
  21237026.8914  -22943036.28348 -17450655.71447  21237021.6644
  22337256.9694  -15614629.73148 -12115752.71246  22337250.1254
  21811512.1024  -18320783.36648 -14219768.51046  21811505.4924
  24708458.1724   -2955289.73746   -535856.58143  24708452.9224
  21457720.3444  -19233375.77548 -13904256.27047  21457715.2504
  23927057.2424   -7188941.79846  -5108669.80744  23927052.9104
 15  3 17  0 32  0.0000000  0 10G21G30G27G07G18G19G22G13G16G15
  22270683.8284  -15853174.64548 -11628622.71546  22270678.2664
  25018919.6644   -4810163.47846  -1891195.35443  25018918.5274
  20588830.4614  -23810839.70048 -18500215.52047  20588827.1684
  24352802.2734   -6499164.86246  -4686696.23044  24352798.7194
  21235091.4924  -22953206.75748 -17458580.74747  21235086.0234
  22321039.5784  -15699851.16548 -12182158.99946  22321033.4144
  21797018.4224  -18396947.24248 -14279116.96046  21797011.9614
  24712326.9694   -2934959.31546   -520014.78343  24712321.7274
  21468983.9614  -19174185.57348 -13858134.05146  21468978.6454
  23924510.7584   -7202326.01346  -5119099.03644  23924506.2304
 15  3 17  0 32 30.0000000  0 10G21G30G27G07G18G19G22G13G16G15
  22282353.1724  -15791855.02648 -11580841.20146  22282346.8754
  25014285.1484   -4834521.75646  -1910175.82743  25014282.6844
  20581179.3284  -23851046.77449 -18531545.71148  20581176.2074
  24357226.0634   -6475920.88346  -4668584.06643  24357220.8794
  21233253.0314  -22962869.53848 -17466110.17447  21233247.2974
  22304869.8364  -15784824.27848 -12248371.79946  22304863.2194
  21782597.1024  -18472731.89248 -14338169.89646  21782589.9964
  24716306.7504   -2914042.49346   -503715.98843  24716301.9494
  21480346.8524  -19114474.11848 -13811605.66747  21480341.4304
  23922072.4774   -7215140.30346  -5129084.18544  23922067.7154
 15  3 17  0 33  0.0000000  0 10G21G30G27G07G18G19G22G13G16G15
  22294061.8054  -15730324.39747 -11532895.26346  22294055.5944
  25009754.4064   -4858330.59746  -1928728.17743  25009751.6524
  20573607.5234  -23890837.47849 -18562551.44848  20573604.1564
  24361753.3984   -6452134.28346  -4650049.09944  24361747.7704
  21231511.1174  -22972023.21048 -17473242.89247  21231505.6564
  22288748.0634  -15869546.19948 -12314388.87046  22288741.4224
  21768249.0474  -18548134.05448 -14396924.80346  21768241.4344
  24720398.8674   -2892538.73446   -486959.81343  24720394.4384
  21491808.7114  -19054242.19948 -13764671.71546  21491803.3244
  23919743.2814   -7227382.87246  -5138623.83444  23919737.4844
 15  3 17  0 33 30.0000000  0 10G21G30G27G07G18G19G22G13G16G15
  22305810.2344  -15668585.06647 -11484786.70746  22305804.5004
  25005327.7114   -4881590.67046  -1946852.88943  25005325.8484
  20566114.7274  -23930211.85549 -18593232.78348  20566111.3204
  24366381.6254   -6427808.34246  -4631093.79844  24366376.7584
  21229865.4924  -22980669.07448 -17479979.91347  21229860.0864
  22272673.4844  -15954016.60448 -12380209.96046  22272666.9614
  21753973.1484  -18623153.74848 -14455381.69146  21753965.8204
  24724602.1174   -2870450.26346   -469748.05443  24724597.1764
  21503368.6254  -18993493.05548 -13717334.74546  21503363.3284
  23917521.9224   -7239054.31746  -5147718.41844  23917516.5634
 15  3 17  0 34  0.0000000  0 10G21G30G27G07G18G19G22G13G16G15
  22317598.7274  -15606637.39048 -11436515.81946  22317592.7274
  25001006.2504   -4904300.43646  -1964548.77843  25001004.3284
  20558701.6334  -23969167.65449 -18623587.94048  20558698.1094
  24371113.5864   -6402943.28946  -4611718.39844  24371108.9844
  21228316.9844  -22988806.19548 -17486320.51347  21228311.7504
  22256648.0234  -16038233.05648 -12445833.14946  22256641.4064
  21739770.6094  -18697787.77148 -14513538.04246  21739763.4344
  24728916.7664   -2847777.07545   -452080.71143  24728911.5904
  21515027.2034  -18932228.09648 -13669595.84046  21515021.9654
  23915410.0314   -7250152.98046  -5156366.69244  23915405.1684
 15  3 17  0 34 30.0000000  0 10G21G30G27G07G18G19G22G13G16G15
  22329426.7274  -15544481.66548 -11388082.79546  22329420.4224
  24996789.7274   -4926458.77746  -1981815.03243  24996787.3444
  20551368.5554  -24007702.94249 -18653615.43448  20551365.5124
  24375948.5864   -6377539.82646  -4591923.46944  24375942.4964
  21226865.7424  -22996434.30748 -17492264.49147  21226860.0164
  22240670.6564  -16122193.12648 -12511256.57946  22240663.8054
  21725641.7194  -18772033.77548 -14571392.04446  21725634.8524
  24733342.8134   -2824519.16945   -433957.66942  24733338.2624
  21526783.2424  -18870448.54748 -13621455.95846  21526777.6684
  23913407.3984   -7260677.45046  -5164567.56644  23913401.9844
 15  3 17  0 35  0.0000000  0 10G21G30G27G07G18G19G22G13G16G15
  22341293.3444  -15482119.99148 -11339489.29546  22341287.1994
  24992678.0634   -4948066.14446  -1998651.94743  24992675.1844
  20544115.7194  -24045817.48648 -18683315.06848  20544112.6454
  24380883.5474   -6351600.81946  -4571711.29143  24380878.3954
  21225510.7114  -23003554.40848 -17497812.61047  21225505.1604
  22224742.3134  -16205896.42248 -12576479.90046  22224735.5784
  21711587.1724  -18845891.03448 -14628943.14246  21711580.0044
  24737879.0554   -2800678.11645   -415380.23542  24737874.8984
  21538637.0394  -18808157.58848 -13572917.58347  21538631.8674
  23911513.7504   -7270628.26746  -5172321.43944  23911509.0274
 15  3 17  0 35 30.0000000  0 10G21G30G27G07G18G19G22G13G16G15
  22353199.8134  -15419552.52448 -11290735.44146  22353193.6564
  24988671.2974   -4969121.10246  -2015058.41843  24988668.9654
  20536943.3054  -24083509.13949 -18712685.19048  20536939.9064
  24385921.1954   -6325126.74746  -4551082.15143  24385916.3594
  21224252.3984  -23010165.95948 -17502964.45647  21224247.0084
  22208863.7814  -16289340.27448 -12641501.07646  22208856.8524
  21697607.2424  -18919356.97048 -14686189.31346  21697600.0004
  24742526.9614   -2776254.46345   -396348.78542  24742522.8204
  21550587.7664  -18745356.26748 -13523981.50546  21550582.1644
  23909728.9774   -7280003.54347  -5179626.80144  23909724.4494
 15  3 17  0 36  0.0000000  0 10G21G30G27G07G18G19G22G13G16G15
  22365144.9924  -15356779.91648 -11241821.74046  22365139.2114
  24984769.0554   -4989622.69146  -2031033.69943  24984767.4344
  20529851.7034  -24120776.08349 -18741724.37348  20529848.0864
  24391062.1954   -6298118.06346  -4530036.39243  24391056.2664
  21223091.1564  -23016268.55448 -17507719.71447  21223085.7584
  22193034.3984  -16372522.56248 -12706318.43246  22193028.0634
  21683702.0084  -18992429.28648 -14743128.75246  21683695.0784
  24747286.0784   -2751248.57345   -376863.74443  24747281.4964
  21562635.3054  -18682046.43648 -13474649.19946  21562629.6604
  23908054.1644   -7288802.58746  -5186483.18645  23908050.5124
 15  3 17  0 36 30.0000000  0 11G21G30G27G07G18G19G04G22G13G16G15
  22377127.5944  -15293810.74147 -11192754.86546  22377121.5204
  24980972.5944   -5009578.03646  -2046583.26943  24980970.5824
  20522839.3754  -24157624.81648 -18770437.66348  20522835.9774
  24396301.3914   -6270584.74546  -4508581.84444  24396296.7114
  21222025.5944  -23021870.26948 -17512084.67147  21222019.8164
  22177254.0784  -16455449.56648 -12770936.86046  22177247.3014
  25150204.773     -267608.75215
  21669870.3444  -19065113.98548 -14799766.15046  21669863.7974
  24752153.7344   -2725668.94045   -356931.65142  24752149.1804
  21574777.7344  -18618238.19648 -13424928.51246  21574771.9734
  23906489.1334   -7297032.36346  -5192895.96344  23906484.6334
 15  3 17  0 37  0.0000000  0 11G21G30G27G07G18G19G04G22G13G16G15
  22389149.0944  -15230636.99048 -11143528.59546  22389143.1334
  24977280.8444   -5028977.65946  -2061699.87943  24977279.3634
  20515908.8984  -24194044.92948 -18798816.98548  20515905.6564
  24401641.3594   -6242519.04846  -4486712.55444  24401636.1914
  21221056.0944  -23026962.11248 -17516052.32747  21221050.6024
  22161524.0634  -16538110.32347 -12835347.82346  22161517.6954
  25129174.922     -378125.503 5
  21656114.9144  -19137400.36448 -14856093.17046  21656107.8594
  24757131.8134   -2699507.33545   -336545.95142  24757127.2274
  21587016.3754  -18553923.87148 -13374813.48346  21587010.7504
  23905032.7584   -7304683.10146  -5198857.56345  23905028.1884
 15  3 17  0 37 30.0000000  0 11G21G30G27G07G18G19G04G22G13G16G15
  22401210.1644  -15167255.44948 -11094140.39746  22401204.1954
  24973696.0634   -5047816.69346  -2076379.61343  24973693.7234
  20509060.9144  -24230030.75648 -18826857.89248  20509058.0314
  24407083.5394   -6213918.06646  -4464426.09943  24407078.2194
  21220185.1094  -23031539.83548 -17519619.37747  21220179.5354
  22145846.2194  -16620498.91748 -12899546.71746  22145839.6764
  25108155.016     -488580.873 5
  21642436.2194  -19209282.21548 -14912104.96146  21642429.1454
  24762222.1174   -2672760.76145   -315704.46442  24762217.1414
  21599351.5474  -18489101.78848 -13324302.78946  21599346.0084
  23903687.6724   -7311750.05147  -5204364.24645  23903684.0514
 15  3 17  0 38  0.0000000  0 11G21G30G27G07G18G19G04G22G13G16G15
  22413309.4224  -15103672.65248 -11044595.39346  22413303.8014
  24970217.1954   -5066100.28246  -2090626.53543  24970214.5824
  20502295.0234  -24265586.60649 -18854563.74848  20502291.8284
  24412627.2114   -6184789.02346  -4441728.14243  24412621.3364
  21219410.3914  -23035609.58248 -17522790.59647  21219405.1994
  22130219.1564  -16702619.06648 -12963536.43546  22130212.4774
  25087147.617     -598979.478 5
  21628833.7344  -19280763.43348 -14967804.57346  21628826.8444
  24767421.1254   -2645435.30245   -294411.90442  24767417.7774
  21611781.8134  -18423779.69048 -13273402.47046  21611776.6414
  23902452.9924   -7318237.83747  -5209419.63344  23902448.9574
 15  3 17  0 38 30.0000000  0 11G21G30G27G07G18G19G04G22G13G16G15
  22425447.3054  -15039889.81147 -10994894.50146  22425440.9104
  24966842.9534   -5083828.22046  -2104440.49743  24966841.5044
  20495611.0634  -24300711.39548 -18881933.69448  20495607.6414
  24418270.1564   -6155133.92646  -4418620.21644  24418264.9694
  21218732.7814  -23039171.35748 -17525565.99147  21218727.2664
  22114643.1644  -16784469.16348 -13027315.72746  22114636.6644
  25066149.742     -709320.332 5
  21615307.9454  -19351842.08948 -15023190.51747  21615301.0784
  24772733.8984   -2617532.30245   -272669.38542  24772727.9574
  21624307.2274  -18357959.48048 -13222114.02746  21624301.7664
  23901328.6804   -7324146.58947  -5214023.83145  23901324.2854
 15  3 17  0 39  0.0000000  0 11G21G30G27G07G18G19G04G22G13G16G15
  22437622.4844  -14975908.00948 -10945038.55946  22437616.6094
  24963574.8834   -5101000.01846  -2117821.08743  24963573.4804
  20489009.1024  -24335403.84449 -18908966.77148  20489006.0004
  24424013.5704   -6124954.24446  -4395103.51844  24424008.1644
  21218151.6884  -23042225.50448 -17527945.83747  21218146.2504
  22099120.2274  -16866048.15948 -13090883.76146  22099112.9734
  25045164.430     -819602.461 5
  21601858.9304  -19422517.14048 -15078261.97447  21601851.7424
  24778151.328    -2589053.056 4
  21636926.3984  -18291643.39948 -13170439.18346  21636921.2664
  23900315.7974   -7329475.46947  -5218176.18045  23900310.6644
 15  3 17  0 39 30.0000000  0 11G21G30G27G07G18G19G04G22G13G16G15
  22449835.5004  -14911727.72048 -10895027.96846  22449829.7194
  24960414.0474   -5117614.98146  -2130767.83843  24960411.5354
  20482490.0554  -24369662.38249 -18935661.73148  20482487.1994
  24429856.1724   -6094251.19946  -4371179.06344  24429851.2234
  21217666.8834  -23044772.40948 -17529930.43047  21217661.3634
  22083647.5944  -16947353.70848 -13154238.72746  22083641.0744
  25024189.258     -929824.731 5
  21588487.0704  -19492786.07848 -15133016.97646  21588480.0824
  24783680.477   -26191297.86715
  21649640.1484  -18224833.76048 -13118379.74946  21649634.6414
  23899411.2664   -7334223.72547  -5221876.09444  23899406.4884
 15  3 17  0 40  0.0000000  0 11G21G30G27G07G18G19G04G22G13G16G15
  22462086.3364  -14847349.97348 -10844863.50846  22462080.7544
  24957358.4844   -5133672.93346  -2143280.52143  24957356.1214
  20476053.5944  -24403485.91348 -18962017.72748  20476050.4184
  24435797.1484   -6063026.70346  -4346848.25644  24435792.5824
  21217278.8444  -23046812.51948 -17531520.11647  21217273.4384
  22068228.1174  -17028384.17148 -13217379.33246  22068221.3524
  25003225.922    -1039985.684 5
  21575193.0164  -19562647.41848 -15187454.36247  21575185.7344
  24789319.242   -26161668.411 5
  21662447.0634  -18157532.48748 -13065937.21546  21662441.4734
  23898618.1254   -7338391.23047  -5225123.46245  23898613.8014
 15  3 17  0 40 30.0000000  0 11G21G30G27G07G18G19G04G22G13G16G15
  22474374.5314  -14782775.74948 -10794545.96246  22474368.6054
  24954408.9614   -5149173.17246  -2155358.66243  24954406.2034
  20469700.5394  -24436872.72349 -18988033.41948  20469697.3164
  24441837.8594   -6031282.19246  -4322112.24044  24441833.4184
  21216987.2584  -23048345.22048 -17532714.41347  21216981.7974
  22052861.1724  -17109137.32248 -13280303.87046  22052854.3834
  24982275.266    -1150084.366 5
  21561976.6254  -19632099.14648 -15241572.57146  21561969.3134
  24795065.977   -26131465.157 5
  21675347.3134  -18089741.71948 -13013113.25246  21675341.8874
  23897936.3204   -7341976.91647  -5227917.47544  23897931.6764
 15  3 17  0 41  0.0000000  0 11G21G30G27G07G18G19G04G22G13G16G15
  22486699.6254  -14718005.63348 -10744075.76246  22486694.0204
  24951564.7424   -5164115.35446  -2167001.91443  24951562.9494
  20463430.3364  -24469821.66548 -19013707.92848  20463427.0474
  24447978.3204   -5999019.01846  -4296972.12343  24447971.8754
  21216792.0234  -23049371.24348 -17533513.90247  21216786.0664
  22037547.6644  -17189611.98748 -13343011.38246  22037540.9064
  24961336.3984   -1260119.60246    774892.98452  24961332.4774
  21548838.8984  -19701139.68248 -15295370.36346  21548831.7344
  24800922.617   -26100689.099 5
  21688340.2114  -18021463.63548 -12959909.56346  21688334.7664
  23897364.8914   -7344980.72546  -5230258.09844  23897359.5664
 15  3 17  0 41 30.0000000  0 11G21G30G27G07G18G19G04G22G13G16G15
  22499062.3524  -14653040.66448 -10693453.73946  22499055.8404
  24948828.0864   -5178498.94246  -2178209.89443  24948826.0124
  20457244.1254  -24502331.18948 -19039040.02948  20457241.0124
  24454215.3674   -5966238.88846  -4271429.21943  24454210.3874
  21216693.4224  -23049890.01648 -17533918.13647  21216687.5354
  22022287.1334  -17269805.61748 -13405499.92546  22022280.6134
  24940409.6094   -1370090.15446    689201.64942  24940406.2624
  21535779.3984  -19769766.74148 -15348845.96246  21535772.1174
  24806888.078   -26069341.323 5
  21701425.1484  -17952700.38748 -12906327.83046  21701419.8714
  23896902.8054   -7347401.57347  -5232144.45344  23896898.5124
 15  3 17  0 42  0.0000000  0 11G21G30G27G07G18G19G04G22G13G16G15
  22511461.5234  -14587881.94748 -10642680.72246  22511455.1454
  24946197.4384   -5192324.10546  -2188982.72643  24946195.0354
  20451141.4694  -24534400.53448 -19064029.13248  20451138.6804
  24460550.9064   -5932943.86046  -4245484.97443  24460545.0904
  21216690.7734  -23049902.86348 -17533928.13047  21216685.1484
  22007080.3594  -17349717.49148 -13467768.90446  22007073.5514
  24919495.8204   -1479995.26246    603561.35643  24919492.7114
  21522799.2344  -19837979.43048 -15401998.68046  21522792.0784
  24812962.922   -26037423.263 5
  21714602.8134  -17883454.46048 -12852369.98546  21714597.3834
  23896553.5944   -7349239.76647  -5233576.79844  23896548.0434
 15  3 17  0 42 30.0000000  0 11G21G30G27G07G18G19G04G22G13G16G15
  22523897.6024  -14522529.99948 -10591757.14946  22523892.0004
  24943673.0084   -5205589.88446  -2199319.71943  24943670.8794
  20445123.2274  -24566027.66148 -19088673.65548  20445119.7074
  24466985.0164   -5899135.15346  -4219140.55943  24466979.5594
  21216784.4924  -23049409.55648 -17533543.72347  21216779.0124
  21991927.7584  -17429344.39748 -13529815.82146  21991921.3134
  24898594.1644   -1589833.17946    517973.32642  24898591.3674
  21509897.5234  -19905775.57648 -15454826.82947  21509890.3284
  24819144.023   -26004935.615 5
  21727871.2734  -17813727.30048 -12798037.15146  21727866.0204
  23896316.0004   -7350494.17347  -5234554.21244  23896310.3324
 15  3 17  0 43  0.0000000  0 11G21G30G27G07G18G19G04G22G13G16G15
  22536369.7034  -14456986.42248 -10540684.26146  22536364.2774
  24941254.5944   -5218296.77046  -2209221.20743  24941252.4694
  20439188.5394  -24597212.11349 -19112973.23448  20439185.1684
  24473515.9454   -5864815.27246  -4192397.79843  24473510.7624
  21216974.7894  -23048410.94948 -17532765.57647  21216969.1684
  21976829.4774  -17508686.11948 -13591640.53546  21976822.9304
  24877704.4924   -1699603.34746    432438.16343  24877703.0664
  21497075.9224  -19973153.74648 -15507329.28047  21497068.8754
  24825434.445   -25971879.847 5
  21741230.8834  -17743521.88748 -12743331.66146  21741225.6844
  23896187.3834   -7351165.15946  -5235077.03444  23896183.2384
 15  3 17  0 43 30.0000000  0 11G21G30G27G07G18G19G04G22G13G16G15
  22548879.1484  -14391251.15648 -10489462.00546  22548873.5084
  24938943.1564   -5230443.31746  -2218686.02443  24938940.9024
  20433339.3134  -24627951.50748 -19136926.01348  20433335.9414
  24480144.2974   -5829984.73646  -4165257.12944  24480139.2464
  21217260.6254  -23046906.31248 -17531593.12247  21217255.1524
  21961786.3204  -17587739.79448 -13653240.79346  21961779.3914
  24856828.8834   -1809303.99546    346957.20143  24856827.2894
  21484334.2814  -20040111.44848 -15559504.10347  21484327.2664
  24831832.914   -25938256.424 5
  21754681.1724  -17672839.74848 -12688254.69646  21754676.2034
  23896170.8364   -7351251.52146  -5235144.34244  23896166.3674
 15  3 17  0 44  0.0000000  0 11G21G30G27G07G18G19G04G22G13G16G15
  22561424.6954  -14325326.33348 -10438092.02845  22561418.2584
  24936738.5704   -5242030.56347  -2227715.02943  24936736.2544
  20427574.4924  -24658245.81148 -19160531.96348  20427571.1724
  24486868.9144   -5794646.27746  -4137720.62744  24486863.5084
  21217643.3594  -23044897.47548 -17530027.78547  21217637.3204
  21946797.7344  -17666504.54148 -13714615.90846  21946790.8054
  24835968.2274   -1918934.96746    261530.41643  24835964.7894
  21471673.1254  -20106648.31848 -15611350.99647  21471665.7624
  24838339.211   -25904067.486 5
  21768222.0004  -17601684.17148 -12632808.82946  21768216.4534
  23896266.0084   -7350754.11847  -5234756.71244  23896261.3324
 15  3 17  0 44 30.0000000  0 11G21G30G27G07G18G19G04G22G13G16G15
  22574005.1254  -14259212.26347 -10386574.59845  22573999.4224
  24934639.8364   -5253057.74846  -2236307.62443  24934637.1564
  20421894.6414  -24688093.14248 -19183789.61748  20421891.3714
  24493690.1884   -5758801.76546  -4109789.84044  24493685.5124
  21218121.5234  -23042383.75348 -17528069.02647  21218116.0784
  21931864.9924  -17744978.16348 -13775764.17646  21931857.9534
  24815118.9454   -2028494.46146    176159.39143  24815116.4734
  21459091.6724  -20172762.36748 -15662868.42447  21459084.4184
  24844950.133   -25869313.768 5
  21781851.8364  -17530056.69248 -12576995.22746  21781846.4454
  23896471.5554   -7349671.57946  -5233913.15044  23896467.2624
 15  3 17  0 45  0.0000000  0 11G21G30G27G07G18G19G04G22G13G16G15
  22586622.4844  -14192908.95648 -10334909.71245  22586617.0004
  24932648.1884   -5263524.18146  -2244463.25243  24932645.8634
  20416300.6564  -24717491.85348 -19206697.70948  20416296.9494
  24500606.4844   -5722451.92846  -4081465.36343  24500601.2504
  21218696.0234  -23039365.13048 -17525716.84047  21218690.1454
  21916987.7034  -17823158.29348 -13836683.74846  21916980.8794
  24794284.4924   -2137981.07946     90845.13343  24794281.9344
  21446591.6884  -20238450.88548 -15714054.26547  21446584.3134
  24851672.719   -25833996.205 5
  21795571.7034  -17457959.36348 -12520815.51746  21795566.0394
  23896789.0634   -7348003.90046  -5232613.65244  23896784.0864
 15  3 17  0 45 30.0000000  0 11G21G30G27G07G18G19G04G22G13G16G15
  22599275.3914  -14126418.12447 -10283098.69645  22599269.5664
  24930763.1094   -5273430.14746  -2252182.16643  24930760.5864
  20410791.3914  -24746441.10949 -19229255.57448  20410788.1024
  24507619.2974   -5685599.30446  -4052749.04043  24507614.1564
  21219366.0784  -23035842.74148 -17522972.11247  21219360.8874
  21902166.9224  -17901043.58548 -13897373.56946  21902159.9104
  24773463.9774   -2247393.92745      5588.39143  24773460.9694
  21434172.6024  -20303712.91848 -15764907.75947  21434165.3834
  24858500.844   -25798116.378 6
  21809380.2814  -17385394.70648 -12464271.64646  21809374.7774
  23897217.3364   -7345750.76346  -5230857.92444  23897212.1954
 15  3 17  0 46  0.0000000  0 11G21G30G27G07G18G19G04G22G13G16G15
  22611963.8524  -14059740.97847 -10231142.50545  22611957.7304
  24928984.4534   -5282775.87246  -2259464.51343  24928982.1914
  20405368.3674  -24774939.95849 -19251462.46548  20405365.2544
  24514727.4774   -5648246.11346  -4023642.70843  24514721.5394
  21220132.2974  -23031817.65348 -17519835.66747  21220126.6954
  21887402.0234  -17978632.68448 -13957832.60646  21887394.8524
  24752657.4224   -2356732.24545    -79610.27843  24752654.1844
  21421835.0784  -20368547.11048 -15815427.88547  21421828.1334
  24865434.6564  -25761675.86345 -17075216.60152  24865429.4024
  21823277.3364  -17312365.53448 -12407365.83546  21823272.1334
  23897757.6254   -7342912.23747  -5228646.08544  23897753.0204
 15  3 17  0 46 30.0000000  0 11G21G30G27G07G18G19G04G22G13G16G15
  22624687.0084  -13992878.17247 -10179041.63145  22624681.4104
  24927313.2814   -5291560.80246  -2266309.96843  24927310.3484
  20400031.2504  -24802986.82948 -19273317.17448  20400028.2734
  24521930.3204   -5610393.64046  -3994147.23143  24521925.1174
  21220993.6724  -23027289.39148 -17516307.13647  21220988.2114
  21872693.7274  -18055923.64348 -14018059.31746  21872686.8634
  24731866.1334   -2465994.66046   -164749.75143  24731862.8324
  21409579.3594  -20432951.67548 -15865613.24447  21409571.9734
  24872475.5474  -25724675.52745 -17046385.19542  24872471.1994
  21837262.6094  -17238874.07148 -12350099.78546  21837256.9264
  23898409.4064   -7339487.76046  -5225977.63244  23898404.7854
 15  3 17  0 47  0.0000000  0 11G21G30G27G07G18G19G04G22G13G16G15
  22637445.9064  -13925830.28947 -10126796.55445  22637439.9574
  24925747.4534   -5299784.64946  -2272718.13143  24925745.6844
  20394780.3524  -24830580.34349 -19294818.60348  20394777.1884
  24529229.2734   -5572043.67346  -3964264.09143  24529223.2664
  21221951.1644  -23022258.06548 -17512386.60947  21221945.5594
  21858043.2504  -18132913.76448 -14078051.60646  21858036.1884
  24711088.0164   -2575179.82246   -249829.06843  24711084.6524
  21397405.5234  -20496924.61048 -15915462.27247  21397398.2384
  24879622.9384  -25687116.54645 -17017118.47942  24879618.0594
  21851335.1024  -17164922.04048 -12292474.86146  21851329.0084
  23899172.2814   -7335477.24346  -5222852.54544  23899167.0864
 15  3 17  0 47 30.0000000  0 11G21G30G27G07G18G19G04G22G13G16G15
  22650240.2344  -13858598.15447 -10074407.89345  22650233.8014
  24924289.5394   -5307447.53346  -2278689.22043  24924287.8554
  20389615.5704  -24857719.40048 -19315965.91748  20389612.8204
  24536620.0314   -5533198.32746  -3933994.96543  24536615.3134
  21223004.5234  -23016724.94348 -17508075.08247  21222998.6954
  21843449.9924  -18209602.17348 -14137808.79646  21843443.0634
  24690325.9384   -2684286.72746   -334847.40143  24690322.5164
  21385314.0394  -20560464.65848 -15964973.98247  21385307.0084
  24886875.4454  -25649000.57345 -16987417.78542  24886871.0124
  21865494.3914  -17090512.08448 -12234493.10046  21865489.0474
  23900048.0944   -7330880.49846  -5219270.65444  23900041.8134
 15  3 17  0 48  0.0000000  0 11G21G30G27G07G18G19G04G22G13G16G15
  22663068.5704  -13791182.75447 -10021876.43446  22663062.9494
  24922938.0704   -5314549.36146  -2284223.08743  24922936.7774
  20384538.2584  -24884402.80749 -19336758.18948  20384535.1994
  24544106.4304   -5493859.75946  -3903341.59043  24544100.5234
  21224152.5234  -23010690.28648 -17503372.73947  21224147.0664
  21828914.1484  -18285986.86248 -14197329.31746  21828907.2074
  24669578.8984   -2793314.16046   -419803.85443  24669575.8094
  21373305.7114  -20623570.08048 -16014147.03647  21373299.0164
  24894235.6884  -25610329.06146 -16957284.14743  24894230.2384
  21879741.0634  -17015646.38448 -12176156.21846  21879735.6094
  23901033.7034   -7325697.51346  -5215231.93544  23901027.8914
 15  3 17  0 48 30.0000000  0 11G21G30G27G07G18G19G04G22G13G16G15
  22675932.3284  -13723584.76147  -9969202.68645  22675926.3674
  24921694.3204   -5321089.79746  -2289319.54243  24921691.5164
  20379547.4774  -24910629.02048 -19357194.19848  20379544.3984
  24551686.0314   -5454029.06646  -3872304.69443  24551681.0824
  21225396.4614  -23004153.73148 -17498279.31147  21225390.8954
  21814436.8754  -18362065.69548 -14256611.52346  21814429.8714
  24648847.0944   -2902260.71746   -504697.20943  24648844.2154
  21361380.5084  -20686239.06248 -16062979.98247  21361373.0474
  24901698.9694  -25571103.17545 -16926718.57742  24901695.0664
  21894073.8754  -16940327.34648 -12117466.08846  21894068.2304
  23902131.4064   -7319927.93746  -5210736.12044  23902126.4694
 15  3 17  0 49  0.0000000  0 11G21G30G27G07G18G19G04G22G13G16G15
  22688829.9694  -13655805.32547  -9916387.55445  22688824.1174
  24920556.2894   -5327068.97746  -2293978.62743  24920554.1604
  20374644.1024  -24936396.98949 -19377273.13248  20374640.6914
  24559358.9694   -5413708.47746  -3840886.09044  24559353.8914
  21226735.6954  -22997116.45148 -17492795.70547  21226729.8404
  21800018.1804  -18437836.96348 -14315654.06046  21800011.1914
  24628130.9144   -3011125.32146   -589526.75343  24628127.3674
  21349538.2974  -20748470.18548 -16111471.74547  21349530.9574
  24909268.6414  -25531323.73345 -16895721.66042  24909265.2034
  21908492.4064  -16864557.29048 -12058424.50846  21908487.2814
  23903341.1884   -7313571.65846  -5205783.16844  23903336.2424
 15  3 17  0 49 30.0000000  0 11G21G30G27G07G18G19G04G22G13G16G15
  22701762.0004  -13587845.18647  -9863431.62645  22701756.7974
  24919525.3674   -5332486.78046  -2298200.30443  24919522.8524
  20369828.1334  -24961705.49848 -19396994.04848  20369824.7544
  24567124.3284   -5372899.84646  -3809087.19244  24567119.5594
  21228170.0704  -22989579.13448 -17486922.46847  21228164.4574
  21785658.2734  -18513298.72248 -14374455.41546  21785651.1094
  24607430.9534   -3119906.92246   -674291.59243  24607426.8204
  21337779.5554  -20810262.02148 -16159621.21747  21337771.9184
  24916943.6024  -25490992.54345 -16864294.84042  24916940.1454
  21922996.1334  -16788338.48448 -11999033.25946  21922990.7504
  23904661.5314   -7306628.52946  -5200372.91544  23904657.4304
 15  3 17  0 50  0.0000000  0 11G21G30G27G07G18G19G04G22G13G16G15
  22714728.9924  -13519705.57947  -9810335.84245  22714723.5984
  24918600.7974   -5337343.80946  -2301984.95543  24918598.4574
  20365099.5234  -24986553.83449 -19416356.39148  20365096.0004
  24574981.8914   -5331605.67146  -3776909.93643  24574976.7154
  21229699.1484  -22981542.59748 -17480660.22047  21229693.3484
  21771357.1564  -18588450.02748 -14433014.86046  21771350.5004
  24586745.7034   -3228604.67346   -758991.04943  24586743.2624
  21326104.6564  -20871613.44948 -16207427.49747  21326097.6764
  24924724.6724  -25450111.67746 -16832439.63842  24924719.4414
  21937585.1334  -16711674.04148 -11939294.74946  21937580.0314
  23906095.4844   -7299098.90646  -5194505.68344  23906090.1724
 15  3 17  0 50 30.0000000  0 11G21G30G27G07G18G19G04G22G13G16G15
  22727729.9304  -13451386.84247  -9757100.47545  22727723.7774
  24917783.0084   -5341639.70246  -2305332.41843  24917781.0084
  20360459.2504  -25010940.38049 -19435358.89448  20360455.6644
  24582931.7664   -5289827.75945  -3744355.69443  24582928.0354
  21231323.3364  -22973006.72448 -17474008.88547  21231317.6804
  21757116.2734  -18663288.30048 -14491330.37846  21757109.3554
  24566077.6644   -3337217.23146   -843624.11143  24566074.7894
  21314514.2194  -20932522.37248 -16254888.97647  21314506.9064
  24932607.6724  -25408682.00545 -16800156.81542  24932604.0864
  21952258.3134  -16634565.90648 -11879210.51146  21952253.0314
  23907639.2664   -7290982.51046  -5188181.20244  23907634.0354
 15  3 17  0 51  0.0000000  0 11G21G30G27G07G18G19G04G22G13G16G15
  22740764.1484  -13382889.54647  -9703725.97545  22740758.2934
  24917071.9774   -5345374.16046  -2308242.43043  24917070.0904
  20355906.6094  -25034863.54948 -19454000.32248  20355903.3524
  24590974.1564   -5247567.46746  -3711425.65143  24590968.8404
  21233042.8674  -22963971.79648 -17466968.67947  21233036.9964
  21742934.9614  -18737811.59748 -14549400.48446  21742927.9804
  24545425.0474   -3445742.78346   -928189.40643  24545422.2624
  21303007.9144  -20992987.19548 -16302004.40147  21303000.9384
  24940595.5704  -25366704.64545 -16767447.23542  24940592.5744
  21967015.6804  -16557015.75248 -11818781.85646  21967010.1884
  23909295.9144   -7282278.89746  -5181399.15444  23909290.4264
 15  3 17  0 51 30.0000000  0 11G21G30G27G07G18G19G04G22G13G16G15
  22753832.6884  -13314215.18947  -9650213.50945  22753826.8524
  24916468.3834   -5348547.92746  -2310715.49143  24916466.0044
  20351442.4694  -25058322.98249 -19472280.40548  20351439.3164
  24599107.3364   -5204827.60446  -3678121.88843  24599102.5784
  21234856.5474  -22954439.54448 -17459540.93647  21234851.0864
  21728813.8914  -18812018.57248 -14607224.08546  21728806.6914
  24524789.7344   -3554181.10246  -1012686.69843  24524787.4454
  21291586.9534  -21053006.71748 -16348772.85247  21291579.5004
  24948687.8914  -25324181.84445 -16734312.68242  24948684.5084
  21981856.5394  -16479027.21948 -11758011.60546  21981851.1054
  23911063.4614   -7272988.83446  -5174160.11344  23911058.9494
 15  3 17  0 52  0.0000000  0 11G21G30G27G07G18G19G04G22G13G16G15
  22766934.3134  -13245363.59947  -9596562.94945  22766928.9534
  24915971.5234   -5351160.18646  -2312750.98543  24915968.6764
  20347066.7424  -25081316.50849 -19490197.44348  20347063.3284
  24607331.1644   -5161609.33346  -3644445.31843  24607326.7894
  21236765.2894  -22944409.25948 -17451725.11747  21236759.8364
  21714752.9614  -18885906.52448 -14664799.09746  21714746.2584
  24504171.6954   -3662530.17445  -1097114.44743  24504169.5704
  21280250.6254  -21112578.91348 -16395192.72647  21280243.4884
  24956882.992   -25281113.928 5
  21996780.5944  -16400601.76248 -11696900.90746  21996774.9454
  23912943.3444   -7263111.66246  -5166463.60644  23912938.1764
 15  3 17  0 52 30.0000000  0 11G21G30G27G07G18G19G04G22G13G16G15
  22780070.1804  -13176337.33647  -9542776.25745  22780064.2274
  24915580.6804   -5353212.36346  -2314350.07643  24915578.5044
  20342779.9774  -25103844.37548 -19507751.62548  20342776.4534
  24615645.8054   -5117915.79546  -3610398.35343  24615640.8834
  21238768.3834  -22933882.81948 -17443522.69247  21238762.9384
  21700753.8914  -18959475.02848 -14722125.20146  21700747.0554
  24483571.0554   -3770789.91846  -1181472.63543  24483568.0704
  21268999.2424  -21171703.34548 -16441263.70147  21268992.2424
  24965181.430   -25237503.948 5
  22011786.5864  -16321742.85048 -11635452.43446  22011781.6604
  23914934.8134   -7252648.31647  -5158310.30145  23914929.0044
 15  3 17  0 53  0.0000000  0 11G21G30G27G07G18G19G04G22G13G16G15
  22793238.3914  -13107136.57547  -9488853.60145  22793232.1024
  24915296.9384   -5354704.09546  -2315512.43943  24915294.5634
  20338581.9534  -25125904.82848 -19524941.59748  20338578.6454
  24624050.9304   -5073748.92446  -3575982.60543  24624045.8554
  21240866.0704  -22922860.32148 -17434933.74247  21240860.5004
  21686815.2274  -19032721.69148 -14779200.51746  21686808.2664
  24462987.3914   -3878958.54246  -1265759.79243  24462984.1294
  21257833.8674  -21230378.03848 -16486984.21047  21257826.6484
  24973583.9144  -25193353.25345 -16466548.43352  24973577.8324
  22026874.9534  -16242452.79348 -11573668.00746  22026870.0984
  23917036.6484   -7241598.56846  -5149700.13344  23917031.0984
 15  3 17  0 53 30.0000000  0 11G21G30G27G07G18G19G04G22G13G16G15
  22806439.8134  -13037761.75347  -9434795.31645  22806434.1954
  24915120.0314   -5355635.50046  -2316238.19444  24915117.6134
  20334473.1644  -25147496.60049 -19541766.35648  20334470.0204
  24632545.6094   -5029110.45646  -3541199.42444  24632540.7234
  21243057.8054  -22911342.26148 -17425958.62147  21243051.6254
  21672938.3984  -19105644.61148 -14836023.55246  21672931.3444
  24442420.2894   -3987035.01146  -1349975.11943  24442417.5204
  21246754.2894  -21288601.79048 -16532353.35147  21246747.4024
  24982088.8524  -25148662.65645 -16431724.72942  24982083.6454
  22042045.4694  -16162733.61848 -11511549.20846  22042040.3524
  23919250.9064   -7229962.57846  -5140633.13344  23919245.8444
 15  3 17  0 54  0.0000000  0 11G21G30G27G07G18G19G04G22G13G16G15
  22819674.7894  -12968213.69947  -9380602.04245  22819668.8914
  24915049.4694   -5356006.71646  -2316527.44243  24915047.2304
  20330453.7664  -25168618.54849 -19558225.01448  20330450.6414
  24641128.8444   -4984002.36946  -3506050.24144  24641124.3324
  21245343.8284  -22899329.24648 -17416597.82147  21245337.9774
  21659123.5864  -19178241.99848 -14892592.92847  21659117.1254
  24421871.4774   -4095017.98045  -1434117.61043  24421868.8754
  21235761.0234  -21346372.84948 -16577369.74447  21235753.3524
  24990694.008   -25103434.218 5
  22057296.5394  -16082587.69248 -11449097.86046  22057291.2774
  23921577.1804   -7217740.20946  -5131109.17844  23921571.8594
 15  3 17  0 54 30.0000000  0 11G21G30G27G07G18G19G04G22G13G16G15
  22832942.1334  -12898493.47547  -9326274.60545  22832935.9384
  24915085.0864   -5355817.82546  -2316380.24143  24915083.3714
  20326524.0314  -25189269.42648 -19574316.61348  20326520.9654
  24649801.3754   -4938426.79946  -3470536.85643  24649796.9454
  21247723.9144  -22886822.01448 -17406851.91547  21247718.0554
  21645371.3204  -19250511.89748 -14948907.12547  21645364.4264
  24401341.7114   -4202906.27646  -1518186.32443  24401338.6054
  21224853.9614  -21403689.32348 -16622031.91347  21224846.6524
  24999403.039   -25057669.224 5
  22072628.6644  -16002017.58648 -11386315.99146  22072623.2344
  23924014.0004   -7204931.66246  -5121128.46944  23924008.6914
 15  3 17  0 55  0.0000000  0 11G21G30G27G07G18G19G04G22G13G16G15
  22846241.8364  -12828602.01147  -9271813.74145  22846235.6564
  24915227.2034   -5355069.34846  -2315797.03943  24915224.8054
  20322684.1724  -25209448.42249 -19590040.50448  20322681.0204
  24658562.8674   -4892386.03046  -3434660.92543  24658558.0434
  21250197.6334  -22873821.40748 -17396721.56347  21250191.8914
  21631681.0944  -19322452.81448 -15004964.97846  21631674.1174
  24380828.4844   -4310698.75446  -1602180.36543  24380826.3094
  21214033.4304  -21460550.79748 -16666339.53847  21214026.1604
  25008214.344   -25011369.632 5
  22088040.8754  -15921025.91848 -11323205.64046  22088035.3054
  23926563.6174   -7191537.21847  -5110691.21644  23926557.9844
 15  3 17  0 55 30.0000000  0 11G21G30G27G07G18G19G04G22G13G16G15
  22859574.2584  -12758540.35047  -9217220.25345  22859568.1484
  24915475.1884   -5353762.04046  -2314778.29343  24915473.7854
  20318934.1724  -25229154.88949 -19605396.19448  20318930.3754
  24667412.7814   -4845882.86946  -3398424.63144  24667407.5944
  21252765.0314  -22860328.52448 -17386207.62047  21252759.6724
  21618054.4534  -19394063.04848 -15060765.13547  21618047.0664
  24360334.9844   -4418394.98846  -1686099.41043  24360332.5314
  21203299.9924  -21516956.03748 -16710291.65447  21203292.7624
  25017126.172   -24964537.371 5
  22103532.7034  -15839615.74348 -11259769.17746  22103527.0314
  23929223.2584   -7177557.59746  -5099798.00044  23929217.9734
 15  3 17  0 56  0.0000000  0 11G21G30G27G07G18G19G04G22G13G16G15
  22872938.7424  -12688308.41147  -9162494.09645  22872933.0354
  24915831.7734   -5351895.33046  -2313323.71943  24915829.1604
  20315274.4614  -25248386.84848 -19620382.14648  20315271.1604
  24676349.6954   -4798918.61046  -3361829.12944  24676344.5274
  21255426.6334  -22846343.42348 -17375310.13847  21255421.0124
  21604490.9844  -19465340.09248 -15116305.67747  21604484.2424
  24339860.5474   -4525992.67946  -1769941.65943  24339857.5664
  21192653.5394  -21572902.34248 -16753886.15847  21192646.5904
  25026140.977   -31218853.46414
  22119103.9144  -15757788.85248 -11196007.99146  22119098.4264
  23931994.9454   -7162992.39646  -5088448.46844  23931989.9304
 15  3 17  0 56 30.0000000  0 11G21G30G27G07G18G19G04G22G13G16G15
  22886335.8594  -12617906.24547  -9107635.28845  22886330.2934
  24916293.0474   -5349468.44746  -2311432.64043  24916290.3984
  20311705.1724  -25267142.16148 -19634996.66948  20311702.1684
  24685374.6564   -4751494.33446  -3324875.21244  24685369.1484
  21258181.8054  -22831865.64148 -17364028.73847  21258176.2074
  21590991.1174  -19536280.95348 -15171584.25747  21590984.2074
  24319404.2034   -4633489.66345  -1853705.42943  24319400.9494
  21182095.3914  -21628387.55548 -16797121.37647  21182087.9304
  25035254.141
  22134753.9384  -15675546.93548 -11131923.42646  22134748.6294
  23934878.5234   -7147840.22446  -5076641.56144  23934873.8634
 15  3 17  0 57  0.0000000  0 11G21G30G27G07G18G19G04G22G13G16G15
  22899764.0164  -12547338.59147  -9052647.53045  22899758.6724
  24916861.2974   -5346485.97346  -2309108.61243  24916858.4884
  20308226.2814  -25285424.03948 -19649242.29348  20308223.2774
  24694485.5944   -4703616.20446  -3287567.58844  24694479.8404
  21261029.4144  -22816900.02548 -17352367.21747  21261023.8404
  21577555.1724  -19606888.18748 -15226602.86747  21577547.9384
  24298965.9064   -4740889.02245  -1937393.11043  24298963.7234
  21171623.9144  -21683414.97048 -16839999.86047  21171616.2624
  25044468.086   -31122538.26715
  22150482.0704  -15592896.11848 -11067520.22346  22150476.4414
  23937873.4534   -7132106.32846  -5064381.36144  23937867.5164
 15  3 17  0 57 30.0000000  0 11G21G30G27G07G18G19G04G22G13G16G15
  22913225.0704  -12476602.74847  -8997528.70045  22913219.0044
  24917535.0864   -5342944.49546  -2306349.05943  24917532.2424
  20304838.3754  -25303227.61248 -19663115.20748  20304835.4734
  24703682.5084   -4655282.31046  -3249904.82843  24703678.0204
  21263970.4454  -22801443.49948 -17340323.15847  21263965.0164
  21564183.3754  -19677155.81548 -15281356.85347  21564176.4454
  24278548.4454   -4848185.83146  -2021000.90143  24278545.1804
  21161240.4924  -21737979.02148 -16882517.27447  21161233.2154
  25053782.688   -31073590.655 5
  22166287.6564  -15509835.49348 -11002797.68046  22166282.4734
  23940977.6334   -7115786.90246  -5051664.93644  23940972.4494
 15  3 17  0 58  0.0000000  0 10G21G30G27G07G18G19G04G22G16G15
  22926718.1644  -12405698.13247  -8942278.38445  22926712.0514
  24918315.6484   -5338843.56646  -2303153.46643  24918312.8094
  20301542.0704  -25320550.89049 -19676613.86648  20301538.6334
  24712966.1024   -4606494.70546  -3211888.47643  24712961.4494
  21267005.2894  -22785496.30748 -17327896.76947  21266999.8834
  21550876.9384  -19747081.22148 -15335844.17347  21550870.0904
  24258150.3284   -4955377.92546  -2104527.08743  24258146.9384
  21150946.0474  -21792077.12548 -16924671.62047  21150938.8984
  22182171.8524  -15426366.63448 -10937757.03546  22182166.1334
  23944195.2504   -7098881.08046  -5038491.57444  23944189.3634
 15  3 17  0 58 30.0000000  0 10G21G30G27G07G18G19G04G22G16G15
  22940241.8914  -12334629.36047  -8886900.15745  22940235.5704
  24919200.7974   -5334186.86846  -2299524.84943  24919199.6294
  20298336.3594  -25337396.26049 -19689740.12348  20298333.1094
  24722336.5164   -4557259.13446  -3173523.11743  24722330.2544
  21270132.5944  -22769062.30248 -17315091.04947  21270126.7774
  21537635.5474  -19816666.57448 -15390066.50447  21537628.5704
  24237771.6804   -5062467.68446  -2187973.61143  24237768.2154
  21140739.4774  -21845712.22048 -16966465.18647  21140732.0394
  22198131.7584  -15342496.13748 -10872403.43346  22198126.4024
  23947522.6884   -7081393.01247  -5024864.48544  23947517.6174
 15  3 17  0 59  0.0000000  0 10G21G30G27G07G18G19G04G22G16G15
  22953797.3134  -12263396.11647  -8831393.75345  22953791.4534
  24920193.8984   -5328973.67346  -2295462.61443  24920191.1134
  20295222.2114  -25353761.47449 -19702492.24148  20295218.9224
  24731789.8204   -4507576.38346  -3134809.23343  24731784.5514
  21273352.5634  -22752141.14748 -17301905.72847  21273347.1884
  21524459.1804  -19885908.89948 -15444021.54646  21524451.9694
  24217413.6724   -5169452.44046  -2271338.26743  24217409.9494
  21130621.8204  -21898881.33448 -17007895.64747  21130614.8094
  22214168.5394  -15258224.25548 -10806737.06646  22214162.6254
  23950961.8834   -7063322.13547  -5010783.27344  23950957.0044
 15  3 17  0 59 30.0000000  0 10G21G30G27G07G18G19G04G22G16G15
  22967383.4064  -12191998.78547  -8775759.48145  22967377.9344
  24921290.8364   -5323204.21746  -2290966.87943  24921288.3914
  20292199.8054  -25369645.25048 -19714869.21848  20292196.3284
  24741328.7974   -4457448.32746  -3095748.34043  24741323.8244
  21276665.2274  -22734733.13748 -17288341.04147  21276659.5164
  21511348.1724  -19954805.43748 -15497707.16747  21511341.9454
  24197074.9384   -5276331.07646  -2354620.25543  24197071.5434
  21120593.0944  -21951583.02548 -17048961.87847  21120586.0744
  22230280.0634  -15173553.84648 -10740760.14846  22230275.2154
  23954511.7734   -7044668.08246  -4996247.65644  23954506.5664
 15  3 17  1  0  0.0000000  0 10G21G30G27G07G18G19G04G22G16G15
  22981001.1954  -12120438.05847  -8719997.90445  22980995.2384
  24922494.9454   -5316878.93046  -2286038.08043  24922492.2194
  20289268.9144  -25385046.56649 -19726870.24048  20289265.6374
  24750952.5234   -4406877.30346  -3056342.37443  24750947.6374
  21280070.2114  -22716839.85148 -17274398.21547  21280064.5824
  21498304.0084  -20023354.33548 -15551121.88647  21498297.1564
  24176756.4224   -5383102.11746  -2437818.37043  24176753.3284
  21110653.3364  -22003816.12949 -17089662.98247  21110646.2194
  22246467.8134  -15088487.47748 -10674474.70446  22246462.5944
  23958172.1954   -7025431.47047  -4981258.05644  23958166.8134
 15  3 17  1  0 30.0000000  0 10G21G30G27G07G18G19G04G22G16G15
  22994649.5164  -12048714.42847  -8664109.41045  22994644.1374
  24923804.4694   -5309997.77846  -2280676.19343  24923801.5594
  20286430.3134  -25399963.91549 -19738494.15548  20286427.1604
  24760659.6724   -4355865.22546  -3016592.69243  24760654.2734
  21283567.5314  -22698460.57348 -17260076.68447  21283562.2704
  21485326.1804  -20091553.55048 -15604264.12647  21485319.3164
  24156459.7344   -5489763.98546  -2520931.47943  24156456.3594
  21100803.2814  -22055579.01848 -17129997.68547  21100796.1214
  22262730.5164  -15003027.59247 -10607882.62146  22262724.8524
  23961943.3984   -7005612.19046  -4965814.43244  23961937.9304
 15  3 17  1  1  0.0000000  0 10G21G30G27G07G18G19G04G22G16G15
  23008329.9534  -11976822.76747  -8608089.96445  23008324.5824
  24925220.2114   -5302555.38846  -2274876.87443  24925217.1764
  20283685.0554  -25414390.35348 -19749735.54548  20283681.7814
  24770451.5004   -4304408.33446  -2976496.43843  24770446.0314
  21287158.4844  -22679591.01048 -17245373.12647  21287152.9224
  21472416.3754  -20159395.19548 -15657127.74547  21472409.4454
  24136185.0314   -5596309.55646  -2603953.89243  24136181.2194
  21091044.2194  -22106863.78448 -17169959.82147  21091036.9924
  22279068.1484  -14917170.59648 -10540981.10145  22279062.8874
  23965827.1484   -6985204.71347  -4949912.51844  23965821.1524
 15  3 17  1  1 30.0000000  0 10G21G30G27G07G18G19G04G22G16G15
  23022038.6094  -11904783.81247  -8551955.72145  23022033.0664
  24926739.5084   -5294572.41046  -2268656.36443  24926736.9844
  20281029.3674  -25428345.00349 -19760609.29948  20281026.2894
  24780323.8754   -4252528.78846  -2936070.76743  24780318.5634
  21290838.3284  -22660251.97948 -17230303.74647  21290833.0354
  21459571.0394  -20226897.42448 -15709726.87347  21459564.1994
  24115927.9144   -5702757.67146  -2686900.43543  24115924.6094
  21081372.1414  -22157689.64648 -17209564.36447  21081364.7664
  22295477.3914  -14830938.80748 -10473787.53846  22295472.3754
  23969819.3284   -6964229.51846  -4933568.20444  23969813.3914
 15  3 17  1  2  0.0000000  0 10G21G30G27G07G18G19G04G22G16G15
  23035778.4694  -11832580.65347  -8495693.54345  23035772.5004
  24928363.9844   -5286032.17646  -2262001.67643  24928362.3674
  20278467.0944  -25441809.72049 -19771101.29248  20278463.8834
  24790280.0784   -4200212.14646  -2895304.64143  24790274.0984
  21294611.2894  -22640426.87148 -17214855.60347  21294605.5234
  21446794.1174  -20294041.35048 -15762046.79947  21446787.1024
  24095694.3444   -5809089.95246  -2769756.70043  24095690.4144
  21071791.3754  -22208038.35348 -17248797.09947  21071783.8054
  22311961.0164  -14744318.36748 -10406291.14446  22311955.5984
  23973920.9844   -6942670.13746  -4916768.67744  23973915.3914
 15  3 17  1  2 30.0000000  0 10G21G30G27G07G18G19G04G22G16G15
  23049549.7894  -11760213.92647  -8439303.91945  23049544.0904
  24930096.0944   -5276934.46046  -2254912.57143  24930094.1724
  20275998.7194  -25454782.70449 -19781210.11848  20275995.1684
  24800318.3594   -4147459.92746  -2854199.06143  24800312.3324
  21298476.2424  -22620115.87848 -17199028.85747  21298470.5314
  21434085.3834  -20360824.40848 -15814085.52947  21434078.7734
  24075481.6414   -5915304.48646  -2852521.24543  24075478.7584
  21062301.3594  -22257907.75348 -17287656.34347  21062293.9454
  22328518.2424  -14657310.41248 -10338492.78146  22328513.0554
  23978134.5554   -6920526.36047  -4899513.76744  23978129.6374
 15  3 17  1  3  0.0000000  0 10G21G30G27G07G18G19G04G22G16G15
  23063350.5474  -11687688.90947  -8382790.96545  23063344.9494
  24931932.3444   -5267285.08246  -2247393.57443  24931929.9184
  20273622.9304  -25467268.12649 -19790939.02648  20273619.3634
  24810437.8524   -4094279.37146  -2812759.70043  24810432.6804
  21302432.3444  -22599325.14648 -17182828.27647  21302426.8444
  21421445.1884  -20427249.93948 -15865845.67347  21421438.0474
  24055292.0084   -6021404.95646  -2935196.89043  24055288.4144
  21052901.8204  -22307301.77448 -17326145.17647  21052894.2734
  22345147.4614  -14569923.40148 -10270399.04245  22345142.5514
  23982458.7664   -6897803.76347  -4881807.84744  23982453.1844
 15  3 17  1  3 30.0000000  0 10G21G30G27G07G18G19G04G22G16G15
  23077180.9844  -11615011.38547  -8326159.16245  23077175.0984
  24933872.7274   -5257088.98446  -2239448.55643  24933870.6604
  20271338.9534  -25479269.54749 -19800290.78848  20271335.5164
  24820638.7584   -4040677.52946  -2770992.11143  24820632.6684
  21306479.0084  -22578060.13248 -17166258.13247  21306473.6024
  21408872.7664  -20493320.60848 -15917329.30347  21408865.5124
  24035122.5084   -6127394.84746  -3017786.36143  24035118.9264
  21043592.2584  -22356223.89948 -17364266.29847  21043585.1414
  22361847.7424  -14482164.04147 -10202015.16245  22361842.6054
  23986891.8914   -6874507.50947  -4863654.90744  23986886.6644
 15  3 17  1  4  0.0000000  0 10G21G30G27G07G18G19G04G22G16G15
  23091040.5234  -11542175.28347  -8269403.78445  23091035.3754
  24935918.2274   -5246340.25246  -2231072.93543  24935915.7664
  20269148.8364  -25490779.23749 -19809259.38948  20269145.5124
  24830918.1414   -3986650.08846  -2728892.86443  24830913.2544
  21310617.3054  -22556314.48148 -17149313.47447  21310611.7304
  21396368.9454  -20559027.38548 -15968529.38147  21396362.0744
  24014975.3364   -6233266.02546  -3100283.30444  24014972.5474
  21034374.0164  -22404666.61748 -17402013.85947  21034366.6564
  22378619.5164  -14394027.98147 -10133337.74145  22378613.8444
  23991435.1254   -6850631.33847  -4845050.07144  23991430.0944
 15  3 17  1  4 30.0000000  0 10G21G30G27G07G18G19G04G22G16G15
  23104931.2274  -11469179.82147  -8212524.24045  23104925.5594
  24938068.9454   -5235037.98446  -2222266.01043  24938066.6294
  20267052.4304  -25501794.93049 -19817843.06348  20267049.1414
  24841281.1414   -3932197.78046  -2686462.43243  24841275.7934
  21314846.5164  -22534088.09548 -17131994.19747  21314840.9614
  21383935.1954  -20624367.42348 -16019443.67947  21383928.1094
  23994853.1564   -6339016.10446  -3182685.90143  23994848.9024
  21025247.3284  -22452626.26248 -17439385.00147  21025240.1134
  22395462.1334  -14305516.75147 -10064367.98146  22395456.9414
  23996088.6724   -6826174.53847  -4825992.82444  23996083.5394
 15  3 17  1  5  0.0000000  0 10G21G30G27G07G18G19G04G22G16G15
  23118851.9614  -11396026.86647  -8155521.98145  23118846.8094
  24940324.4384   -5223184.55246  -2213029.57343  24940321.6684
  20265050.3754  -25512317.24049 -19826042.27048  20265046.8594
  24851723.7504   -3877324.73146  -2643704.23643  24851717.9064
  21319167.3914  -22511383.74348 -17114302.49747  21319161.6454
  21371571.0704  -20689340.33848 -16070071.92047  21371564.3014
  23974751.5394   -6444645.23246  -3264994.30743  23974748.1294
  21016212.7664  -22500103.74848 -17476380.43447  21016205.4184
  22412376.1334  -14216634.45347  -9995109.09145  22412371.2774
  24000852.8674   -6801139.31147  -4806484.84144  24000848.1844
 15  3 17  1  5 30.0000000  0 10G21G30G27G07G18G19G04G22G16G15
  23132801.5314  -11322722.76847  -8098401.94845  23132795.7154
  24942683.5944   -5210785.22846  -2203367.79043  24942680.6564
  20263141.0234  -25522349.84549 -19833859.89248  20263137.8594
  24862244.2194   -3822038.30646  -2600624.04843  24862238.1684
  21323577.8754  -22488206.71848 -17096242.47047  21323571.7814
  21359276.3524  -20753948.77448 -16120416.15747  21359269.6914
  23954673.2814   -6550156.63946  -3347210.91543  23954670.1334
  21007269.3754  -22547102.84648 -17513003.09047  21007261.8754
  22429359.2584  -14127388.49747  -9925566.82145  22429354.1524
  24005726.1024   -6775530.80646  -4786530.13744  24005721.8914
 15  3 17  1  6  0.0000000  0 10G21G30G27G07G18G19G04G22G16G15
  23146779.5394  -11249264.63347  -8041161.87445  23146774.1884
  24945147.9534   -5197838.11146  -2193279.08643  24945145.0124
  20261325.7114  -25531889.31149 -19841293.24848  20261322.3984
  24872843.2504   -3766337.95946  -2557221.28543  24872837.6334
  21328078.3364  -22464555.23348 -17077812.73947  21328072.9104
  21347052.0554  -20818188.82548 -16170473.33547  21347044.7544
  23934618.3284   -6655546.97046  -3429333.19643  23934613.7074
  20998417.2194  -22593619.45448 -17549249.78247  20998410.1954
  22446411.1954  -14037779.10048  -9855741.36345  22446405.9304
  24010708.1174   -6749347.32747  -4766127.42544  24010703.7584
 15  3 17  1  6 30.0000000  0 11G21G30G27G07G18G19G04G22G11G16G15
  23160787.7274  -11175653.66847  -7983802.73245  23160782.2234
  24947715.3284   -5184343.65546  -2182763.91543  24947713.0514
  20259604.4614  -25540934.33049 -19848341.31248  20259601.0984
  24883521.6804   -3710225.92546  -2513497.68343  24883516.7274
  21332669.2734  -22440430.12248 -17059013.94147  21332663.6564
  21334898.0704  -20882057.84348 -16220241.39347  21334891.3164
  23914586.1884   -6760814.18846  -3511359.45843  23914582.8674
  20989657.3754  -22639652.87248 -17585119.95547  20989650.0864
  25256167.594
  22463532.4924  -13947808.29747  -9785634.28146  22463527.2464
  24015800.6024   -6722589.14846  -4745276.90944  24015795.4534
 15  3 17  1  7  0.0000000  0 11G21G30G27G07G18G19G04G22G11G16G15
  23174824.0704  -11101892.14547  -7926326.25445  23174819.1644
  24950387.9534   -5170304.55346  -2171824.34743  24950384.2934
  20257977.2974  -25549485.92049 -19855004.89648  20257974.0594
  24894276.9614   -3653706.08046  -2469456.25943  24894271.8794
  21337349.7584  -22415834.57748 -17039848.58247  21337344.2114
  21322814.6174  -20945555.93848 -16269720.41047  21322807.8324
  23894577.0864   -6865959.01446  -3593290.36743  23894574.9414
  20980989.4304  -22685202.79148 -17620613.37447  20980982.3914
  25234951.3914    -769818.91646   -459578.18552  25234947.0354
  22480720.8364  -13857480.82048  -9715249.27245  22480715.8364
  24021001.5394   -6695258.93146  -4723980.64644  24020996.5434
 15  3 17  1  7 30.0000000  0 11G21G30G27G07G18G19G04G22G11G16G15
  23188889.9304  -11027977.42647  -7868730.39545  23188884.1524
  24953163.0554   -5155717.99346  -2160458.20344  24953160.7384
  20256444.6414  -25557539.83249 -19861280.67848  20256441.0234
  24905109.3054   -3596777.77446  -2425096.47843  24905104.6954
  21342120.0314  -22390765.60548 -17020314.30547  21342114.5594
  21310802.7974  -21008677.84648 -16318906.30447  21310796.1884
  23874593.3984   -6970977.08646  -3675122.54043  23874590.1334
  20972414.3754  -22730265.23148 -17655726.94847  20972407.1724
  25213739.9844    -881282.75446   -546433.06142  25213735.6684
  22497977.7664  -13766796.00447  -9644585.81245  22497972.8794
  24026312.5234   -6667353.81546  -4702236.37844  24026306.3554
 15  3 17  1  8  0.0000000  0 11G21G30G27G07G18G19G04G22G11G16G15
  23202984.1484  -10953911.35047  -7811016.60845  23202978.7114
  24956042.1254   -5140586.97246  -2148667.77444  24956040.5554
  20255006.4614  -25565097.14749 -19867169.49548  20255003.0594
  24916019.2664   -3539445.60546  -2380422.06743  24916014.3834
  21346980.2974  -22365226.20348 -17000413.47247  21346974.6524
  21298863.1804  -21071423.64948 -16367799.12747  21298856.3634
  23854632.8594   -7075868.97346  -3756856.38643  23854630.0474
  20963932.1174  -22774841.07548 -17690461.35047  20963924.3984
  25192534.4304    -992719.28946   -633266.68843  25192530.2194
  22515301.6174  -13675758.42647  -9573647.47945  22515296.3834
  24031730.8204   -6638876.54746  -4680046.29844  24031725.3284
 15  3 17  1  8 30.0000000  0 11G21G30G27G07G18G19G04G22G11G16G15
  23217106.8754  -10879695.35047  -7753186.00045  23217101.5904
  24959024.8674   -5124912.13946  -2136453.62044  24959022.4694
  20253663.1174  -25572156.94949 -19872670.64148  20253659.6414
  24927006.2974   -3481711.75646  -2335434.65643  24927000.5944
  21351929.1094  -22339217.59848 -16980147.01547  21351923.7384
  21286994.7274  -21133791.60248 -16416397.53347  21286988.0204
  23834697.0474   -7180633.61546  -3838491.09944  23834693.8794
  20955542.1564  -22818929.36748 -17724815.84347  20955534.9104
  25171334.3364   -1104126.68746   -720077.51743  25171329.8244
  22532692.5234  -13584370.59647  -9502436.22245  22532687.3714
  24037258.2584   -6609828.00646  -4657411.05644  24037252.8554
 15  3 17  1  9  0.0000000  0 11G21G30G27G07G18G19G04G22G11G16G15
  23231258.0234  -10805330.40147  -7695239.33545  23231252.6454
  24962111.0554   -5108694.25046  -2123816.25944  24962108.9574
  20252414.3834  -25578718.28248 -19877783.37648  20252411.1484
  24938069.4614   -3423579.01046  -2290136.42143  24938062.8674
  21356967.8984  -22312740.30848 -16959515.35847  21356962.2814
  21275198.7894  -21195779.69548 -16464699.93347  21275191.9494
  23814785.5944   -7285269.33147  -3920025.32444  23814782.4104
  20947245.5784  -22862529.00148 -17758789.56647  20947238.1214
  25150139.2814   -1215503.99246   -806864.92243  25150135.2894
  22550149.3134  -13492635.27247  -9430954.19745  22550144.4534
  24042894.8914   -6580208.85447  -4634331.16144  24042888.8324
 15  3 17  1  9 30.0000000  0 11G21G30G27G07G18G19G04G22G11G16G15
  23245437.3914  -10730817.31547  -7637177.22545  23245432.1374
  24965300.4694   -5091934.60146  -2110756.80943  24965298.0434
  20251261.0474  -25584780.74449 -19882507.37048  20251257.7464
  24949206.2504   -3365049.92146  -2244529.35843  24949200.5514
  21362095.1644  -22285796.12448 -16938519.89147  21362089.3134
  21263475.3674  -21257386.34648 -16512705.10447  21263469.1334
  23794897.9384   -7389775.22246  -4001458.35543  23794894.9414
  20939042.0004  -22905639.07448 -17792381.81047  20939034.6804
  25128950.6254   -1326850.73646   -893628.51343  25128946.7384
  22567671.3444  -13400555.48347  -9359203.73645  22567665.4924
  24048639.3284   -6550020.13846  -4610807.45144  24048633.4774
 15  3 17  1 10  0.0000000  0 11G21G30G27G07G18G19G04G22G11G16G15
  23259645.5554  -10656156.24547  -7578999.78645  23259639.3714
  24968592.3834   -5074634.17946  -2097275.94043  24968589.9344
  20250202.3134  -25590343.53648 -19886842.00448  20250198.8634
  24960418.1954   -3306127.16046  -2198615.58643  24960413.6804
  21367311.2894  -22258386.08448 -16917161.41347  21367305.1134
  21251825.0864  -21318609.94248 -16560411.80447  21251817.7274
  23775036.3834   -7494150.35346  -4082789.54944  23775032.9344
  20930931.8284  -22948258.69448 -17825591.88847  20930924.2504
  25107768.3834   -1438165.55146   -980367.26143  25107764.1604
  22585258.6024  -13308133.63947  -9287186.75645  22585252.8404
  24054493.0314   -6519262.97346  -4586840.77144  24054486.2704
 15  3 17  1 10 30.0000000  0 11G21G30G27G07G18G19G04G22G11G16G15
  23273880.9534  -10581348.08447  -7520707.73444  23273875.4654
  24971987.1644   -5056793.74146  -2083374.33043  24971984.9924
  20249238.8054  -25595405.81448 -19890786.63048  20249235.5124
  24971705.4694   -3246813.25745  -2152397.00143  24971700.9414
  21372615.5234  -22230511.08348 -16895440.62747  21372609.5904
  21240247.5394  -21379448.43948 -16607818.42247  21240241.0864
  23755199.9144   -7598393.23846  -4164017.70043  23755196.0744
  20922914.8674  -22990386.94648 -17858419.08047  20922907.4614
  25086593.3364   -1549446.94546  -1067080.01143  25086587.5634
  22602910.4534  -13215372.74647  -9214905.58945  22602905.2814
  24060453.5864   -6487938.14047  -4562431.81144  24060447.7774
 15  3 17  1 11  0.0000000  0 11G21G30G27G07G18G19G04G22G11G16G15
  23288144.2114  -10506393.98447  -7462301.95545  23288138.1024
  24975484.9774   -5038414.25446  -2069052.67843  24975482.7934
  20248371.2504  -25599966.66948 -19894340.55148  20248367.8284
  24983066.4614   -3187110.40646  -2105875.33243  24983061.8954
  21378008.2274  -22202172.25248 -16873358.40947  21378002.6134
  21228744.3364  -21439899.89148 -16654923.44347  21228737.6054
  23735388.9304   -7702502.57746  -4245141.78844  23735385.1214
  20914991.7114  -23032022.80248 -17890862.58647  20914984.4184
  25065423.1564   -1660693.63546  -1153765.67843  25065418.3554
  22620626.2114  -13122275.43347  -9142362.25845  22620621.2114
  24066522.9534   -6456046.57147  -4537581.18944  24066516.5594
 15  3 17  1 11 30.0000000  0 11G21G30G27G07G18G19G04G22G11G16G15
  23302434.8674  -10431294.40447  -7403782.82044  23302429.1254
  24979084.9534   -5019496.53446  -2054311.65443  24979082.3524
  20247598.7974  -25604025.31548 -19897503.13448  20247595.5514
  24994501.2664   -3127021.15346  -2059052.53443  24994496.3714
  21383488.6954  -22173370.63648 -16850915.59047  21383483.3324
  21217314.9614  -21499962.51748 -16701725.48847  21217308.0824
  23715602.8754   -7806477.12846  -4326160.83143  23715599.0594
  20907162.4534  -23073165.65848 -17922921.94747  20907155.3554
  25044259.7504   -1771904.22146  -1240423.13343  25044255.3714
  22638405.7034  -13028844.00247  -9069558.59045  22638400.5204
  24072698.8134   -6423589.14146  -4512289.65144  24072692.8754
 15  3 17  1 12  0.0000000  0 11G21G30G27G07G18G19G04G22G11G16G15
  23316753.4614  -10356049.16847  -7345150.18944  23316747.1844
  24982786.9694   -5000041.69946  -2039152.05143  24982784.5864
  20246922.0704  -25607581.13748 -19900273.90948  20246918.6174
  25006008.7034   -3066548.20446  -2011930.78743  25006003.7894
  21389057.4924  -22144107.31548 -16828113.00047  21389051.9064
  21205959.2584  -21559634.67248 -16748223.26447  21205952.7194
  23695842.5394   -7910315.61246  -4407073.86943  23695839.0084
  20899427.4304  -23113813.42948 -17954595.51147  20899420.2854
  25023104.4224   -1883077.89846  -1327051.87743  25023099.3134
  22656247.9224  -12935081.65047  -8996497.04245  22656242.9184
  24078982.2584   -6390566.68246  -4486557.86244  24078977.6914
 15  3 17  1 12 30.0000000  0 11G21G30G27G07G18G19G04G22G11G16G15
  23331100.2504  -10280660.40947  -7286405.73645  23331094.5044
  24986591.0634   -4980050.89646  -2023574.78343  24986588.8134
  20246341.2664  -25610633.54549 -19902652.41348  20246337.7584
  25017589.0944   -3005694.61546  -1964512.40543  25017584.2974
  21394713.8754  -22114384.04948 -16804952.00247  21394707.9654
  21194678.9844  -21618914.75748 -16794415.53447  21194671.7074
  23676108.5474   -8014017.21347  -4487880.25943  23676104.9224
  20891786.6954  -23153966.23748 -17985883.40447  20891779.3134
  25001955.7274   -1994213.31346  -1413650.84043  25001951.5084
  22674153.0864  -12840991.62747  -8923180.19145  22674148.1254
  24085373.3524   -6356980.37246  -4460386.69744  24085369.1914
 15  3 17  1 13  0.0000000  0 11G21G30G27G07G18G19G04G22G11G16G15
  23345472.6414  -10205128.27847  -7227549.55544  23345467.5704
  24990496.7504   -4959525.20746  -2007580.71243  24990494.5634
  20245856.3594  -25613181.79248 -19904638.06748  20245853.6604
  25029242.0704   -2944462.76646  -1916799.42743  25029236.2194
  21400457.2894  -22084201.44248 -16781433.08447  21400451.6174
  21183473.1954  -21677800.79748 -16840300.75047  21183466.4224
  23656402.4614   -8117580.45846  -4568578.83644  23656397.6994
  20884240.4144  -23193623.19249 -18016784.91347  20884232.9924
  24980814.9384   -2105309.31646  -1500219.05943  24980810.2384
  22692119.3134  -12746576.14047  -8849609.71645  22692114.7074
  24091871.9454   -6322831.31647  -4433777.03844  24091867.3754
 15  3 17  1 13 30.0000000  0 11G21G30G27G07G18G19G04G22G11G16G15
  23359873.1484  -10129453.85047  -7168582.48744  23359868.1564
  24994504.9064   -4938465.79346  -1991170.77043  24994502.1994
  20245467.7194  -25615225.20448 -19906230.34648  20245464.5004
  25040964.4774   -2882855.19946  -1868793.54643  25040959.3554
  21406288.1414  -22053560.62548 -16757557.12047  21406282.2734
  21172342.8594  -21736291.03248 -16885877.55247  21172336.1054
  23636720.7974   -8221004.35547  -4649168.80743  23636716.4804
  20876788.3674  -23232783.44548 -18047299.38347  20876781.0164
  24959682.1024   -2216364.86546  -1586755.78543  24959676.5354
  22710148.0004  -12651838.31047  -8775788.07245  22710142.7194
  24098477.0944   -6288120.61746  -4406729.72444  24098472.6294
 15  3 17  1 14  0.0000000  0 11G21G30G27G07G18G19G04G22G11G16G15
  23374300.7504  -10053637.38347  -7109504.75844  23374295.3874
  24998613.6884   -4916873.91046  -1974345.90943  24998610.7934
  20245174.8134  -25616763.34248 -19907428.90148  20245171.1374
  25052759.0784   -2820874.61446  -1820497.06043  25052753.7234
  21412205.6024  -22022463.18248 -16733325.34047  21412200.4224
  21161288.2114  -21794383.84148 -16931144.66847  21161281.0864
  23617066.8364   -8324287.74547  -4729649.32044  23617062.3754
  20869431.1564  -23271446.33848 -18077426.30447  20869423.4804
  24938555.8524   -2327378.98946  -1673260.23343  24938551.1294
  22728236.8054  -12556780.99347  -8701717.48445  22728231.0704
  24105188.3364   -6252849.44846  -4379245.64944  24105184.5004
 15  3 17  1 14 30.0000000  0 11G21G30G27G07G18G19G04G22G11G16G15
  23388755.3914   -9977679.88647  -7050317.13144  23388749.5434
  25002823.2034   -4894750.62846  -1957107.00243  25002820.5554
  20244978.4064  -25617795.42948 -19908233.12948  20244975.0664
  25064624.8754   -2758523.98946  -1771912.11143  25064619.0084
  21418210.2114  -21990910.58948 -16708738.90547  21418204.5164
  21150309.2114  -21852077.50448 -16976100.76147  21150302.3834
  23597439.1174   -8427429.37447  -4810019.37644  23597435.3284
  20862168.6024  -23309610.79648 -18107164.83247  20862160.9734
  24917439.1254   -2438349.95346  -1759730.92643  24917434.0904
  22746385.7504  -12461406.97947  -8627400.11245  22746380.7234
  24112007.5084   -6217018.94046  -4351325.79644  24112001.9384
 15  3 17  1 15  0.0000000  0 11G21G30G27G07G18G19G04G22G11G16G15
  23403235.7664   -9901582.11947  -6991020.19744  23403230.2194
  25007133.5784   -4872097.34346  -1939455.09543  25007131.9064
  20244878.3754  -25618321.15048 -19908642.78748  20244874.6484
  25076558.8984   -2695805.99046  -1723040.97043  25076554.3874
  21424300.5234  -21958903.56848 -16683798.36147  21424294.7234
  21139407.0234  -21909370.76548 -17020744.85447  21139400.0124
  23577839.2034   -8530428.08047  -4890278.06444  23577835.5904
  20855001.1414  -23347276.57648 -18136514.77447  20854993.2774
  24896330.5634   -2549277.29446  -1846167.68743  24896325.0314
  22764594.4064  -12365719.30247  -8552838.32845  22764588.8284
  24118933.3054   -6180630.37447  -4322971.07544  24118925.5124
 15  3 17  1 15 30.0000000  0 11G21G30G27G07G18G19G04G22G11G16G15
  23417743.9064   -9825345.25047  -6931614.86944  23417737.2774
  25011545.1884   -4848915.33946  -1921391.19943  25011543.2424
  20244874.9304  -25618339.90448 -19908657.39948  20244871.4654
  25088563.0474   -2632723.60546  -1673885.88043  25088559.0594
  21430477.5394  -21926443.91248 -16658505.10847  21430472.0474
  21128580.8524  -21966261.69248 -17065075.43747  21128574.4224
  23558266.0314   -8633283.14647  -4970424.82644  23558262.7624
  20847928.5164  -23384442.59348 -18165475.29247  20847921.2424
  24875229.7424   -2660159.13946  -1932568.99543  24875225.9064
  22782862.2344  -12269721.00847  -8478034.50245  22782856.9884
  24125962.9454   -6143684.83947  -4294182.31443  24125955.0004
 15  3 17  1 16  0.0000000  0 11G21G30G27G07G18G19G04G22G11G16G15
  23432277.6094   -9748968.53047  -6872100.56744  23432271.7034
  25016057.4304   -4825204.46946  -1902915.23743  25016054.9804
  20244968.1414  -25617849.71648 -19908275.43948  20244965.2274
  25100636.8134   -2569277.84346  -1624447.56143  25100631.6724
  21436740.5784  -21893531.46948 -16632859.05147  21436734.9774
  21117832.4224  -22022747.10548 -17109090.02847  21117825.2424
  23538721.2034   -8735991.63447  -5050457.33243  23538717.6094
  20840951.4694  -23421106.98748 -18194044.94447  20840944.1414
  24854138.9224   -2770993.81546  -2018933.64643  24854134.4924
  22801188.4694  -12173412.86347  -8402989.22745  22801183.7664
  24133099.7344   -6106182.49347  -4264959.62044  24133091.6724
 15  3 17  1 16 30.0000000  0 10G21G30G27G18G19G04G22G11G16G15
  23446837.6334   -9672454.43147  -6812479.22144  23446831.5514
  25020669.7504   -4800967.68146  -1884029.40343  25020667.4734
  20245157.8674  -25616851.66748 -19907497.74048  20245154.6024
  21443089.0084  -21860169.28348 -16606862.53947  21443083.2274
  21107160.4384  -22078826.82948 -17152788.50947  21107153.3794
  23519204.5554   -8838554.15847  -5130376.15044  23519200.5124
  20834069.7194  -23457270.81848 -18222224.54147  20834062.1024
  24833056.8134   -2881781.24146  -2105261.43843  24833052.1564
  22819573.8134  -12076799.61647  -8327706.21745  22819568.8984
  24140340.9064   -6068126.07346  -4235305.26644  24140335.2774
 15  3 17  1 17  0.0000000  0 10G21G30G27G18G19G04G22G11G16G15
  23461428.1954   -9595778.97347  -6752732.14244  23461423.1564
  25025386.3914   -4776181.36846  -1864715.40243  25025383.8594
  20245449.5394  -25615320.52148 -19906304.64548  20245446.2234
  21449527.6254  -21826333.65048 -16580497.10647  21449522.0084
  21096570.9144  -22134474.64848 -17196150.43947  21096564.1604
  23499720.1254   -8940944.75147  -5210160.94544  23499716.1254
  20827288.1724  -23492908.53348 -18249994.16547  20827280.7304
  24811989.2504   -2992495.33646  -2191532.11343  24811984.0664
  22838021.1334  -11979859.75247  -8252168.70145  22838015.9654
  24147692.8594   -6029492.24447  -4205200.94644  24147687.2274
 15  3 17  1 17 30.0000000  0 10G21G30G27G18G19G04G22G11G16G15
  23476042.5394   -9518982.54447  -6692890.79344  23476036.6994
  25030199.9064   -4750886.98846  -1845005.51343  25030197.4654
  20245834.6884  -25613295.77548 -19904726.91948  20245831.6524
  21456048.8834  -21792066.09548 -16553795.11147  21456042.9774
  21086056.3204  -22189729.14248 -17239205.87847  21086049.4384
  23480260.9774   -9043202.32847  -5289842.08144  23480256.8794
  20820599.2504  -23528059.07748 -18277384.17947  20820591.5824
  24790927.2894   -3103175.06746  -2277776.02643  24790922.3524
  22856521.8674  -11882636.16747  -8176410.08845  22856517.0354
  24155145.0864   -5990321.74346  -4174678.51743  24155140.7544
 15  3 17  1 18  0.0000000  0 10G21G30G27G18G19G04G22G11G16G15
  23490674.2034   -9442094.67347  -6632978.20144  23490667.7274
  25035104.0394   -4725114.78946  -1824923.28543  25035101.7544
  20246308.5314  -25610805.90248 -19902786.76348  20246305.1724
  21462646.3364  -21757396.66748 -16526779.96847  21462640.1604
  21075611.7734  -22244617.14048 -17281975.74347  21075604.9184
  23460822.0474   -9145354.88447  -5369441.42244  23460818.0864
  20813997.4694  -23562751.31048 -18304417.06647  20813990.0984
  24769865.9304   -3213848.17945  -2364014.76143  24769861.4344
  22875071.3524  -11785160.81247  -8100455.31045  22875065.7934
  24162695.5944   -5950645.13446  -4143761.70644  24162691.4774
 15  3 17  1 18 30.0000000  0 10G21G30G27G18G19G04G22G11G16G15
  23505342.6254   -9365007.31447  -6572910.14844  23505337.0864
  25040119.8444   -4698756.78446  -1804384.57543  25040117.2974
  20246891.3674  -25607740.98848 -19900398.53148  20246888.3984
  21469340.1564  -21722217.35448 -16499367.51447  21469334.5514
  21065257.5474  -22299027.49248 -17324373.42247  21065250.6254
  23441424.3204   -9247291.47947  -5448872.47144  23441420.4924
  20807504.0084  -23596875.31048 -18331007.18847  20807496.5274
  24748828.5474   -3324403.94746  -2450162.05942  24748824.1254
  22893688.4144  -11687326.79447  -8024221.02245  22893683.3014
  24170364.2114   -5910354.33347  -4112366.28745  24170359.6294
 15  3 17  1 19  0.0000000  0 10G21G30G27G18G19G04G22G11G16G15
  23520030.0634   -9287828.53247  -6512770.86444  23520024.4024
  25045225.8674   -4671921.52346  -1783473.98843  25045223.5164
  20247563.9384  -25604207.76348 -19897645.38348  20247560.7774
  21476111.4144  -21686636.82448 -16471642.41746  21476105.4384
  21054974.5164  -22353066.17348 -17366481.48147  21054967.7344
  23422047.5234   -9349118.29247  -5528218.01644  23422043.7384
  20801098.0164  -23630537.22748 -18357237.23947  20801090.6454
  24727792.2814   -3434948.63246  -2536300.73943  24727787.8284
  22912352.3984  -11589244.38647  -7947793.21845  22912347.7034
  24178127.7734   -5869558.05347  -4080576.97645  24178122.3284
 15  3 17  1 19 30.0000000  0 10G21G30G27G18G19G04G22G11G16G15
  23534744.3204   -9210501.58747  -6452516.12044  23534738.6254
  25050435.3914   -4644553.42946  -1762148.20043  25050432.2704
  20248336.4844  -25600148.76448 -19894482.53848  20248332.9574
  21482969.0234  -21650599.57348 -16443561.43146  21482963.1684
  21044773.0554  -22406674.29048 -17408254.03147  21044766.3794
  23402702.2504   -9450777.25947  -5607432.72544  23402698.7734
  20794791.3914  -23663679.63848 -18383062.47547  20794783.8834
  24706769.8364   -3545423.86846  -2622385.27043  24706765.3204
  22931074.9304  -11490859.45647  -7871129.66245  22931070.1024
  24185997.8674   -5828200.72147  -4048350.48445  24185992.2894
 15  3 17  1 20  0.0000000  0 10G21G30G27G18G19G04G22G11G16G15
  23549484.6804   -9133042.52747  -6392158.46144  23549478.6684
  25055740.4064   -4616668.97646  -1740420.07743  25055738.5784
  20249206.0634  -25595578.60148 -19890921.38148  20249202.9024
  21489910.0314  -21614121.90548 -16415137.27146  21489904.7034
  21034650.9924  -22459865.30248 -17449701.56947  21034644.1604
  23383386.5634   -9552282.12647  -5686527.38744  23383383.3054
  20788580.7814  -23696316.93448 -18408494.12647  20788573.3134
  24685756.8914   -3655843.46146  -2708426.45743  24685752.5234
  22949850.7894  -11392190.38147  -7794244.68845  22949846.0744
  24193970.9844   -5786298.79747  -4015699.60244  24193965.2664
 15  3 17  1 20 30.0000000  0 10G21G30G27G18G19G04G22G11G16G15
  23564249.5234   -9055448.74547  -6331695.81144  23564244.4344
  25061146.3284   -4588266.23346  -1718288.07043  25061142.3714
  20250173.7584  -25590493.44248 -19886958.94248  20250170.3094
  21496936.3364  -21577201.74448 -16386368.31146  21496930.6804
  21024609.4534  -22512633.98048 -17490820.00847  21024602.7424
  23364100.8524   -9653628.24447  -5765498.31944  23364097.2624
  20782466.7584  -23728445.27948 -18433529.18247  20782459.1994
  24664756.8204   -3766202.65246  -2794420.58243  24664752.2154
  22968681.2114  -11293235.88547  -7717137.33345  22968676.9024
  24202049.0164   -5743849.95847  -3982622.54844  24202042.1884
 15  3 17  1 21  0.0000000  0 10G21G30G27G18G19G04G22G11G16G15
  23579040.9924   -8977723.04247  -6271130.35044  23579034.9574
  25066649.1484   -4559348.60046  -1695754.87243  25066646.0864
  20251239.2194  -25584894.91148 -19882596.45448  20251235.9104
  21504045.5084  -21539842.57348 -16357257.27146  21504039.7544
  21014648.6564  -22564980.72448 -17531609.65047  21014641.5004
  23344845.2424   -9754816.78647  -5844346.50944  23344841.5944
  20776449.3834  -23760065.84248 -18458168.57947  20776441.5314
  24643767.2114   -3876502.23845  -2880368.24843  24643762.3524
  22987565.0004  -11194001.47047  -7639811.84445  22987559.9614
  24210228.9064   -5700857.83047  -3949122.17044  24210222.8054
 15  3 17  1 21 30.0000000  0 10G21G30G27G18G19G04G22G11G16G15
  23593856.4454   -8899864.86647  -6210461.68744  23593850.2814
  25072249.8754   -4529916.53946  -1672820.82443  25072246.5434
  20252402.5474  -25578781.48048 -19877832.74348  20252399.3444
  21511237.8914  -21502044.72948 -16327804.40347  21511232.1484
  21004767.7584  -22616903.05948 -17572068.60647  21004760.8874
  23325619.8984   -9855845.24947  -5923069.93644  23325616.3444
  20770529.6564  -23791177.65848 -18482411.53547  20770521.5824
  24622789.1024   -3986740.15946  -2966267.85543  24622784.4654
  23006501.6414  -11094488.71947  -7562269.47345  23006496.7344
  24218513.3054   -5657322.68046  -3915198.67244  24218507.2464
 15  3 17  1 22  0.0000000  0 10G21G30G27G18G19G04G22G11G16G15
  23608697.3594   -8821877.17247  -6149692.08144  23608691.8134
  25077946.9144   -4499973.77246  -1649488.79843  25077944.9694
  20253663.3364  -25572154.98848 -19872669.25048  20253660.4884
  21518513.7814  -21463811.93148 -16298012.61147  21518507.7664
  20994968.3834  -22668401.32648 -17612197.12547  20994960.9454
  23306425.1884   -9956714.78947  -6001669.50844  23306421.3754
  20764705.4534  -23821781.74348 -18506258.86347  20764697.3014
  24601823.6174   -4096917.44945  -3052120.30243  24601817.9414
  23025490.1564  -10994702.44947  -7484513.96345  23025485.6214
  24226901.2894   -5613248.15946  -3880854.91143  24226895.4024
 15  3 17  1 22 30.0000000  0 10G21G30G27G18G19G04G22G11G16G15
  23623562.9224   -8743760.47147  -6088821.95544  23623557.2934
  25083741.3594   -4469521.49445  -1625759.73942  25083739.8524
  20255022.3444  -25565014.83648 -19867105.50948  20255019.0204
  21525871.1024  -21425145.33948 -16267882.78846  21525866.0824
  20985249.4614  -22719473.73148 -17651993.79447  20985242.4384
  23287260.5554  -10057423.71047  -6080143.90244  23287256.9734
  20758978.5704  -23851877.87748 -18529710.38047  20758971.0514
  24580869.4694   -4207032.18646  -3137923.98843  24580863.7384
  23044530.6724  -10894645.60747  -7406547.63245  23044525.6914
  24235389.9064   -5568635.43247  -3846091.69944  24235385.0704
 15  3 17  1 23  0.0000000  0 10G21G30G27G18G19G04G22G11G16G15
  23638450.5164   -8665521.58447  -6027856.61844  23638445.3914
  25089632.0164   -4438567.37346  -1601639.64243  25089629.9384
  20256477.6564  -25557366.63049 -19861145.87548  20256474.5234
  21533310.6724  -21386052.08548 -16237420.52446  21533305.0354
  20975610.6954  -22770124.65348 -17691462.02647  20975603.6724
  23268126.1884  -10157977.18647  -6158497.20644  23268122.3794
  20753346.6334  -23881471.48048 -18552770.31847  20753339.5044
  24559926.2974   -4317089.56346  -3223682.91043  24559920.5044
  23063620.3754  -10794327.83147  -7328377.95745  23063615.5904
  24243981.0554   -5523492.37947  -3810915.28944  24243976.3014
 15  3 17  1 23 30.0000000  0 10G21G30G27G18G19G04G22G11G16G15
  23653365.2504   -8587148.01747  -5966786.35144  23653360.0354
  25095620.8674   -4407099.76946  -1577119.40243  25095617.9064
  20258032.3284  -25549196.93448 -19854779.88748  20258029.2114
  21540833.1174  -21346520.39348 -16206616.59447  21540827.7074
  20966055.3524  -22820339.20848 -17730590.25947  20966048.4964
  23249023.6804  -10258360.81247  -6236718.16744  23249019.5554
  20747813.5704  -23910548.58548 -18575427.79047  20747806.1954
  24538996.5084   -4427074.70746  -3309385.57843  24538991.0434
  23082761.9694  -10693737.94547  -7249996.26645  23082756.5084
  24252675.7584   -5477807.18647  -3775316.45144  24252670.3554
 15  3 17  1 24  0.0000000  0 10G21G30G27G18G19G04G22G11G16G15
  23668302.9694   -8508647.15047  -5905616.87244  23668297.6524
  25101703.9534   -4375126.80546  -1552205.48043  25101701.9964
  20259685.0704  -25540511.97548 -19848012.39648  20259681.7974
  21548437.8284  -21306558.81848 -16175477.70346  21548432.3364
  20956581.8984  -22870122.43748 -17769382.38047  20956574.7114
  23229952.9144  -10358580.03047  -6314811.01344  23229948.4224
  20742377.7274  -23939115.70948 -18597687.87347  20742370.3094
  24518080.4384   -4536993.32846  -3395036.39343  24518074.5664
  23101953.7584  -10592885.50747  -7171409.97845  23101948.9804
  24261470.0004   -5431587.86947  -3739301.39244  24261464.8634
 15  3 17  1 24 30.0000000  0 10G21G30G27G18G19G04G22G11G16G15
  23683265.8204   -8430018.81547  -5844348.06344  23683260.2704
  25107884.5474   -4342649.24746  -1526898.32043  25107882.4654
  20261435.9454  -25531310.50748 -19840842.42948  20261432.7704
  21556124.0864  -21266167.57048 -16144004.00046  21556118.2584
  20947190.8444  -22919471.95148 -17807836.55247  20947184.1334
  23210913.0554  -10458632.66247  -6392774.07344  23210908.6454
  20737038.6024  -23967171.37148 -18619549.42447  20737031.4264
  24497176.1094   -4646842.81746  -3480633.37143  24497171.0984
  23121194.7814  -10491773.34847  -7092621.31445  23121190.1254
  24270367.1254   -5384835.14847  -3702870.72344  24270361.6294
 15  3 17  1 25  0.0000000  0 10G21G30G27G18G19G04G22G11G16G15
  23698252.1334   -8351264.50447  -5782981.09344  23698247.2814
  25114160.7344   -4309669.69546  -1501199.92243  25114158.6414
  20263285.1334  -25521593.23448 -19833270.54148  20263281.9184
  21563891.4534  -21225349.15648 -16112197.43446  21563885.6054
  20937882.9064  -22968386.88848 -17845952.08747  20937876.0124
  23191905.1804  -10558518.53047  -6470607.16744  23191901.5984
  20731797.1024  -23994716.14948 -18641012.87947  20731789.8594
  24476285.7034   -4756623.23646  -3566176.50743  24476280.3484
  23140484.3594  -10390404.35047  -7013632.50845  23140479.2934
  24279364.4384   -5337551.78547  -3666026.51344  24279359.6254
 15  3 17  1 25 30.0000000  0 11G21G30G27G14G18G19G04G22G11G16G15
  23713262.4224   -8272384.12047  -5721515.89144  23713256.7304
  25120531.5944   -4276188.83446  -1475110.98543  25120530.1604
  20265232.6724  -25511359.05948 -19825295.87248  20265229.5824
  25306280.766      185659.91816
  21571739.8444  -21184104.27248 -16080058.57446  21571734.2384
  20928657.4924  -23016864.72048 -17883727.02047  20928651.0744
  23172929.8284  -10658235.75147  -6548308.84944  23172926.1564
  20726652.8754  -24021749.04048 -18662077.45447  20726645.3754
  24455408.7734   -4866332.50746  -3651664.19243  24455403.1334
  23159823.3984  -10288781.04947  -6934445.55045  23159818.1804
  24288463.1484   -5289738.37647  -3628769.33444  24288458.1844
 15  3 17  1 26  0.0000000  0 11G21G30G27G14G18G19G04G22G11G16G15
  23728296.3754   -8193381.31847  -5659955.30544  23728290.7344
  25126997.8134   -4242211.19846  -1448634.88243  25126995.3674
  20267277.8754  -25500610.42448 -19816920.31748  20267274.8914
  25287295.539       85893.254 5
  21579668.9694  -21142437.38348 -16047590.86446  21579663.2074
  20919515.4694  -23064906.82348 -17921162.41947  20919508.7154
  23153986.7114  -10757785.47647  -6625880.01944  23153982.2734
  20721605.6644  -24048272.12948 -18682744.78147  20721598.0784
  24434544.4144   -4975971.97346  -3737097.51643  24434539.3594
  23179208.6254  -10186909.19847  -6855064.92245  23179203.9884
  24297661.4304   -5241399.16847  -3591102.38244  24297656.3634
 15  3 17  1 26 30.0000000  0 11G21G30G27G14G18G19G04G22G11G16G15
  23743354.4064   -8114251.73347  -5598295.93444  23743348.6994
  25133559.6884   -4207733.32145  -1421768.91343  25133556.4264
  20269422.4614  -25489341.90148 -19808139.66348  20269419.3244
  25268306.828      -13893.436 5
  21587678.8204  -21100344.51748 -16014791.22546  21587673.1374
  20910458.0084  -23112506.32148 -17958252.94147  20910450.7344
  23135075.1174  -10857161.86847  -6703316.11644  23135071.3404
  20716656.5784  -24074279.90748 -18703010.56747  20716649.1374
  24413696.2114   -5085535.15246  -3822471.33443  24413690.2034
  23198642.0944  -10084786.76147  -6775489.02345  23198637.0514
  24306960.4144   -5192530.61847  -3553022.97644  24306955.2974
 15  3 17  1 27  0.0000000  0 11G21G30G27G14G18G19G04G22G11G16G15
  23758435.7584   -8034999.05847  -5536540.63544  23758429.4304
  25140214.0784   -4172760.17745  -1394517.18243  25140211.6994
  20271665.1884  -25477556.70449 -19798956.40248  20271662.1294
  25249314.7814    -113700.80046    451299.71653  25249311.2034
  21595769.0394  -21057830.74748 -15981663.60546  21595763.2854
  20901483.5704  -23159665.07148 -17995000.02047  20901476.8594
  23116197.2734  -10956366.93247  -6780618.70244  23116193.2624
  20711804.9614  -24099775.54649 -18722877.29047  20711797.5434
  24392860.2344   -5195024.16746  -3907787.36643  24392855.0434
  23218121.3914   -9982419.51647  -6695722.35245  23218116.9534
  24316360.4924   -5143138.06647  -3514535.26944  24316353.8244
 15  3 17  1 27 30.0000000  0 11G21G30G27G14G18G19G04G22G11G16G15
  23773540.1024   -7955623.64947  -5474689.71044  23773534.9574
  25146962.6644   -4137292.79746  -1366880.28242  25146960.9144
  20274006.1804  -25465253.71149 -19789369.65348  20274003.2854
  25230317.9774    -213525.42046    373514.28342  25230314.8794
  21603939.2504  -21014896.52048 -15948208.36646  21603933.3204
  20892593.8594  -23206381.04448 -18031402.07447  20892586.9264
  23097351.9064  -11055398.66147  -6857786.25744  23097348.1954
  20707051.0084  -24124758.16748 -18742344.25447  20707043.2774
  24372039.4064   -5304436.69846  -3993043.86543  24372035.4534
  23237647.9064   -9879810.29247  -6615767.15845  23237643.3164
  24325858.6954   -5093222.14447  -3475639.70943  24325852.1644
 15  3 17  1 28  0.0000000  0 11G21G30G27G14G18G19G04G22G11G16G15
  23788668.5234   -7876125.96647  -5412743.53444  23788663.3244
  25153806.0314   -4101332.66446  -1338859.42542  25153803.7584
  20276445.8594  -25452432.56749 -19779379.17048  20276442.7424
  25211320.4844    -313364.49046    295717.52142  25211316.2074
  21612189.1644  -20971543.14248 -15914426.51346  21612183.1684
  20883788.6954  -23252652.18648 -18067457.50247  20883781.9844
  23078540.5314  -11154255.53547  -6934817.52444  23078536.4494
  20702394.7114  -24149227.11049 -18761410.95347  20702387.2854
  24351234.5474   -5413771.33846  -4078239.65843  24351229.4224
  23257218.8754   -9776961.52847  -6535625.30345  23257214.6484
  24335457.2344   -5042784.53247  -3436337.61044  24335450.3014
 15  3 17  1 28 30.0000000  0 11G21G30G27G14G18G19G04G22G11G16G15
  23803819.6724   -7796506.84647  -5350702.69044  23803814.1484
  25160742.2664   -4064881.72545  -1310456.12642  25160739.8834
  20278984.5944  -25439093.30249 -19768984.94648  20278981.2304
  25192319.3674    -413215.21546    217911.85643  25192314.8914
  21620518.3444  -20927772.50048 -15880319.51346  21620512.6724
  20875068.3984  -23298477.08048 -18103165.21647  20875061.9064
  23059762.2194  -11252936.68547  -7011711.88545  23059757.8404
  20697835.9614  -24173182.06449 -18780077.13547  20697828.5634
  24330443.8754   -5523027.24846  -4163374.11943  24330438.5514
  23276835.6094   -9673876.43747  -6455299.28945  23276830.8054
  24345154.0314   -4991826.99447  -3396630.40044  24345148.3054
 15  3 17  1 29  0.0000000  0 11G21G30G27G14G18G19G04G22G11G16G15
  23818993.1334   -7716767.38247  -5288568.07044  23818987.8204
  25167771.2974   -4027942.08946  -1281671.92642  25167769.4804
  20281621.3914  -25425236.02749 -19758187.08548  20281618.0864
  25173316.2504    -513075.33846    140098.82443  25173312.8404
  21628926.4144  -20883586.46548 -15845888.83546  21628921.0434
  20866433.5164  -23343854.58048 -18138524.30547  20866426.7034
  23041016.6884  -11351441.36447  -7088468.74044  23041012.3984
  20693375.3364  -24196622.92249 -18798342.72547  20693368.1334
  24309668.1094   -5632203.23146  -4248446.24943  24309663.1334
  23296496.7344   -9570557.60047  -6374791.14345  23296492.1564
  24354948.4534   -4940351.52846  -3356519.64244  24354944.1254
 15  3 17  1 29 30.0000000  0 11G21G30G27G14G18G19G04G22G11G16G15
  23834191.4064   -7636906.88047  -5226339.16944  23834185.1134
  25174893.1484   -3990514.30545  -1252507.45942  25174892.5944
  20284357.2274  -25410859.28448 -19746984.44448  20284354.4024
  25154312.5474    -612941.09046     62281.50442  25154309.2814
  21637413.8134  -20838985.38748 -15811134.75346  21637407.5634
  20857884.3834  -23388781.41748 -18173532.23847  20857877.5554
  23022306.8444  -11449767.00847  -7165086.08345  23022301.7814
  20689013.0864  -24219548.37149 -18816206.70147  20689005.5744
  24288907.7894   -5741296.56446  -4333453.97643  24288903.0354
  23316201.7584   -9467007.09147  -6294102.46445  23316196.8284
  24364841.9924   -4888358.80146  -3316005.85944  24364838.3714
 15  3 17  1 30  0.0000000  0 11G21G30G27G14G18G19G04G22G11G16G15
  23849410.0314   -7556925.82946  -5164016.31044  23849404.6844
  25182109.5164                                   25182107.7624
  20287192.0084  -25395962.75849 -19735376.76948  20287189.0474
  25135308.078     -712809.378 6
  21645979.8594  -20793970.49148 -15776058.21046  21645973.8954
  20849420.9774  -23433256.59248 -18208188.20447  20849414.0354
  23003629.4224  -11547912.15647  -7241562.78544  23003625.1094
  20684748.4144  -24241958.06849 -18833668.78647  20684740.9304
  24268163.8984   -5850305.72946  -4418396.14043  24268159.3284
  23335949.6564   -9363228.11847  -6213235.76445  23335945.0044
  24374835.4924   -4835850.26547  -3275090.13544  24374830.0634
 15  3 17  1 30 30.0000000  0 11G21G30G27G14G18G19G04G22G11G16G15
  23864652.0704   -7476829.34246  -5101603.52044  23864646.6334
  25189414.9144  -22819246.13055 -15924246.84852  25189414.0394
  20290124.6884  -25380550.69549 -19723367.38148  20290121.6994
  25116302.1254    -812681.69145     89503.33553  25116298.1564
  21654623.9304  -20748547.86648 -15740663.95846  21654618.2074
  20841042.8984  -23477282.55048 -18242494.14747  20841035.9454
  22984987.3204  -11645880.18647  -7317901.48744  22984982.7664
  20680581.3984  -24263856.20148 -18850732.25747  20680573.6724
  24247435.2344   -5959234.08446  -4503275.32343  24247430.8714
  23355740.7194   -9259228.00347  -6132196.76344  23355735.9654
  24384923.9384   -4782831.94446  -3233777.15544  24384917.9384
 15  3 17  1 31  0.0000000  0 11G21G30G27G14G18G19G04G22G11G16G15
  23879916.8834   -7396610.37746  -5039095.26444  23879912.1724
  25196814.3364                                   25196814.0204
  20293157.0554  -25364615.86649 -19710950.64148  20293153.6994
  25097298.5704    -912548.47045     11685.21542  25097294.8914
  21663346.0864  -20702711.96648 -15704947.67746  21663340.2814
  20832752.2504  -23520850.71148 -18276443.35247  20832745.5354
  22966379.5864  -11743662.67647  -7394095.60144  22966375.6174
  20676512.8134  -24285235.41149 -18867391.37947  20676505.3284
  24226724.8984   -6068072.97246  -4588084.76943  24226719.2974
  23375574.3134   -9155001.89146  -6050981.64444  23375569.6254
  24395111.0234   -4729298.89847  -3192063.05843  24395105.0234
 15  3 17  1 31 30.0000000  0 11G21G30G27G14G18G19G04G22G11G16G15
  23895204.1804   -7316277.96446  -4976498.63944  23895198.8444
  25204303.9774  -22741008.51055 -15863282.55152  25204302.7034
  20296287.7664  -25348165.24149 -19698131.98448  20296284.4774
  25078295.2664   -1012413.82045    -66131.91942  25078291.0744
  21672145.0084  -20656471.52348 -15668916.16246  21672139.2034
  20824547.7814  -23563966.66448 -18310040.20547  20824540.5354
  22947806.3754  -11841265.38247  -7470149.61245  22947802.4024
  20672542.2584  -24306102.83349 -18883651.69747  20672534.7194
  24206029.3284   -6176828.17446  -4672829.04643  24206023.5984
  23395448.5944   -9050560.49646  -5969598.77844  23395444.0434
  24405394.3134   -4675259.97646  -3149954.76643  24405388.3204
 15  3 17  1 32  0.0000000  0 11G21G30G27G14G18G19G04G22G11G16G15
  23910513.5164   -7235825.61646  -4913808.53143  23910507.7464
  25211886.125
  20299517.3444  -25331191.99948 -19684906.09648  20299514.2544
  25059293.4224   -1112268.26545   -143940.74842  25059288.3674
  21681022.3674  -20609821.43548 -15632565.43546  21681016.6024
  20816430.3054  -23606622.19948 -18343278.28847  20816423.8674
  22929269.0474  -11938680.76247  -7546057.68444  22929265.1254
  20668669.8834  -24326451.50248 -18899507.80347  20668662.5864
  24185351.3594   -6285491.69346  -4757501.87443  24185345.8164
  23415364.9304   -8945899.62746  -5888044.87844  23415360.0904
  24415774.5474   -4620709.97346  -3107448.23143  24415769.1764
 15  3 17  1 32 30.0000000  0 11G21G27G14G18G19G04G32G22G11G16G15
  23925845.0164   -7155258.58946  -4851029.06444  23925840.0354
  20302845.6954  -25313700.69149 -19671276.51548  20302842.6174
  25040292.5234   -1212114.11745   -221742.59842  25040288.9064
  21689976.2974  -20562767.59048 -15595900.10546  21689970.5204
  20808400.4614  -23648820.29448 -18376159.91647  20808393.5314
  22910766.9144  -12035911.77447  -7621822.07744  22910762.6174
  24921302.2974     580585.62856    509045.59453  24921300.8874
  20664895.4694  -24346285.20648 -18914962.62047  20664888.3634
  24164690.3444   -6394066.78946  -4842105.79343  24164685.1684
  23435321.5084   -8841026.85046  -5806325.85544  23435317.0434
  24426251.7034   -4565655.35647  -3064548.49944  24426246.4924
 15  3 17  1 33  0.0000000  0 11G21G27G14G18G19G04G32G22G11G16G15
  23941198.3594   -7074577.00946  -4788160.36244  23941193.2774
  20306273.0784  -25295691.03649 -19657243.02648  20306270.0784
  25021295.3444   -1311948.07145   -299535.18342  25021291.2934
  21699007.0234  -20515311.49448 -15558921.32946  21699001.2424
  20800457.6804  -23690559.54448 -18408684.01347  20800450.8244
  22892299.5164  -12132957.42547  -7697442.05044  22892295.3714
  24898225.5474     459312.17946    414546.86043  24898222.9304
  20661219.3204  -24365604.11149 -18930016.30647  20661211.6134
  24144045.9534   -6502551.86446  -4926639.59043  24144040.2304
  23455318.5084   -8735944.86946  -5724443.82445  23455313.6134
  24436822.4774   -4510098.12146  -3021257.17844  24436818.1764
 15  3 17  1 33 30.0000000  0 11G21G27G14G18G19G04G32G22G11G16G15
  23956574.0164   -6993779.45346  -4725201.25544  23956568.2034
  20309799.4614  -25277160.63149 -19642803.77248  20309795.9964
  25002301.6174   -1411764.65346   -377314.28543  25002297.4104
  21708114.2584  -20467452.30748 -15521628.45646  21708108.6054
  20792603.3984  -23731835.64448 -18440847.21947  20792596.5004
  22873867.6804  -12229813.90147  -7772914.61945  22873863.4844
  24875158.9614     338095.10546    320091.98643  24875155.7584
  20657641.3594  -24384405.69949 -18944666.87947  20657633.8364
  24123420.3134   -6610942.90746  -5011100.12743  24123414.2194
  23475354.5864   -8630654.41947  -5642399.36344  23475350.0704
  24447491.2504   -4454037.56546  -2977573.67143  24447486.4574
 15  3 17  1 34  0.0000000  0 11G21G27G14G18G19G04G32G22G11G16G15
  23971971.0004   -6912867.80846  -4662153.27144  23971965.4264
  20313424.4614  -25258110.86349 -19627959.81848  20313421.0004
  24983309.8594   -1511562.94745   -455079.29142  24983306.0634
  21717297.8674  -20419192.92848 -15484023.74246  21717292.2894
  20784836.8204  -23772648.87648 -18472649.74047  20784829.8524
  22855473.0784  -12326481.52347  -7848240.00245  22855469.0004
  24852101.9614     216935.09046    225681.63843  24852100.1804
  20654161.8674  -24402691.17348 -18958915.29447  20654154.7934
  24102811.2274   -6719240.26346  -5095487.65543  24102806.3594
  23495429.5234   -8525160.24547  -5560196.14944  23495424.3674
  24458254.6094   -4397476.82846  -2933500.40343  24458249.6214
 15  3 17  1 34 30.0000000  0 11G21G27G14G18G19G04G32G22G11G16G15
  23987389.2344   -6831842.28346  -4599016.52344  23987383.7974
  20317148.6564  -25238540.88549 -19612710.49248  20317145.4414
  24964322.984
  21726557.1804  -20370534.51548 -15446108.10546  21726551.4304
  20777158.1644  -23812996.52448 -18504089.46447  20777151.8404
  22837113.5234  -12422958.15747  -7923416.54744  22837109.9104
  24829057.4384      95835.04446    131318.00843  24829055.9774
  20650780.1884  -24420459.82149 -18972760.97547  20650773.0664
  24082221.0394   -6827441.54846  -5179800.30843  24082216.8874
  23515542.8134   -8419463.80546  -5477835.30944  23515537.7624
  24469113.4774   -4340417.40946  -2889038.49343  24469106.6564
 15  3 17  1 35  0.0000000  0 11G21G27G14G18G19G04G32G22G11G16G15
  24002828.4614   -6750704.70346  -4535792.45444  24002823.6804
  20320971.4064  -25218451.69849 -19597056.59348  20320968.1564
  24945341.3594   -4861932.08946  -2891986.44353  24945336.9534
  21735892.1414  -20321479.52948 -15407883.44246  21735886.5354
  20769569.8594  -23852878.61848 -18535166.41947  20769562.7304
  22818791.6414  -12519243.69347  -7998444.20145  22818786.8094
  24806025.3674     -25203.53246     37002.21943  24806022.7114
  20647497.5314  -24437712.41948 -18986204.55647  20647490.2424
  24061649.5234   -6935546.59846  -5264038.00843  24061645.1564
  23535694.0474   -8313569.12646  -5395320.00744  23535689.2624
  24480065.5864   -4282861.95046  -2844190.07643  24480058.4614
 15  3 17  1 35 30.0000000  0 11G21G27G14G18G19G04G32G22G11G16G15
  24018290.6884   -6669454.47246  -4472480.63444  24018285.9184
  20324892.9064  -25197842.48849 -19580997.48048  20324889.6054
  24926364.6254   -4961657.40446  -2969694.43543  24926360.3484
  21745302.2894  -20272028.74148 -15369350.35646  21745296.2424
  20762069.2814  -23892292.61848 -18565878.63247  20762062.9574
  22800505.6804  -12615336.10947  -8073321.39745  22800500.8284
  24783003.1724    -146177.69846    -57263.31943  24783001.7034
  20644312.9924  -24454448.19048 -18999245.40647  20644305.3164
  24041096.9614   -7043552.87146  -5348198.72243  24041091.7154
  23555882.6024   -8207478.38347  -5312651.95444  23555878.0554
  24491112.3444   -4224811.47846  -2798955.83243  24491104.9344
 15  3 17  1 36  0.0000000  0 11G21G27G14G18G19G04G32G22G11G16G15
  24033772.4844   -6588092.35146  -4409081.60743  24033768.2774
  20328913.6564  -25176713.14849 -19564533.06248  20328910.6564
  24907393.2814   -5061352.47055  -3047378.81852  24907389.5864
  21754787.4694  -20222183.80048 -15330510.14446  21754781.7664
  20754658.9064  -23931237.02048 -18596224.91547  20754651.3524
  22782256.0474  -12711234.00847  -8148046.99345  22782252.5474
  24759996.3674    -267085.04946   -151476.83843  24759993.2234
  20641226.4454  -24470667.07348 -19011883.49147  20641219.1414
  24020562.5004   -7151458.99746  -5432281.39443  24020557.0354
  23576107.9144   -8101195.13347  -5229833.86844  23576102.4414
  24502252.9384   -4166267.94346  -2753337.52043  24502246.1884
 15  3 17  1 36 30.0000000  0 11G21G27G14G18G19G04G32G22G11G16G15
  24049277.5164   -6506619.10446  -4345595.97843  24049271.3524
  20333033.5004  -25155064.03448 -19547663.63248  20333030.1764
  24888427.9304   -5161014.28146  -3125037.47743  24888423.4614
  21764347.2504  -20171946.88448 -15291364.50246  21764341.4064
  20747337.1954  -23969710.60448 -18626204.33047  20747330.1604
  22764045.1644  -12806936.43847  -8222620.26344  22764040.5664
  24737001.3594    -387923.82646   -245636.89043  24736998.7424
  20638238.4304  -24486368.97149 -19024118.72347  20638230.7664
  24000048.5164   -7259264.05046  -5516285.29843  24000042.3524
  23596368.3834   -7994721.75147  -5146867.61644  23596364.1454
  24513486.7194   -4107233.69646  -2707336.79143  24513481.1414
 15  3 17  1 37  0.0000000  0 11G21G27G14G18G19G04G32G22G11G16G15
  24064802.2274   -6425035.90346  -4282024.68443  24064796.7194
  20337252.0234  -25132895.29148 -19530389.29048  20337248.7584
  24869468.9384   -5260641.00045  -3202668.65443  24869465.2734
  21773981.0944  -20121319.11548 -15251914.28346  21773975.3954
  20740105.0004  -24007712.07548 -18655815.86447  20740098.5124
  22745870.2584  -12902442.37047  -8297040.43645  22745865.9734
  24714020.6884    -508691.80346   -339741.77443  24714016.9534
  20635348.7974  -24501554.07648 -19035951.27047  20635341.6174
  23979552.7734   -7366966.40446  -5600209.18343  23979546.8674
  23616665.1724   -7888061.63347  -5063755.89144  23616660.8404
  24524812.8364   -4047710.70646  -2660955.24243  24524808.1644
 15  3 17  1 37 30.0000000  0 11G21G27G14G18G19G04G32G22G11G16G15
  24080346.9304   -6343342.30646  -4218367.40443  24080342.6604
  20341569.6334  -25110206.33149 -19512709.58948  20341566.4264
  24850516.9064   -5360229.04955  -3280269.58853  24850515.4414
  21783689.4844  -20070301.32048 -15212160.15846  21783683.7384
  20732964.4774  -24045239.36348 -18685057.90247  20732957.6134
  22727734.3364  -12997749.80247  -8371305.91345  22727730.0664
  24691052.7274    -629386.11946   -433789.28943  24691049.5124
  20632557.5634  -24516221.82748 -19047380.68147  20632549.7704
  23959077.3444   -7474564.41346  -5684051.73043  23959072.5394
  23636996.8914   -7781216.97147  -4980500.33444  23636992.8634
  24536232.5234   -3987700.17146  -2614193.82743  24536227.7274
 15  3 17  1 38  0.0000000  0 11G21G27G14G18G19G04G32G22G11G16G15
  24095913.9384   -6261539.71946  -4154625.14643  24095909.0784
  20345985.9224  -25086998.31049 -19494625.42848  20345983.0354
  24831574.3594   -5459776.19746  -3357838.82843  24831570.6094
  21793471.7664  -20018896.96748 -15172104.82946  21793465.9774
  20725913.5944  -24082292.08748 -18713930.15647  20725906.7344
  22709635.7734  -13092858.70647  -8445416.70945  22709631.6054
  24668099.7504    -750005.59446   -527778.44343  24668096.5004
  20629864.7424  -24530373.48149 -19058407.93147  20629857.2934
  23938622.6414   -7582057.22746  -5767812.30243  23938617.1174
  23657363.4694   -7674191.41147  -4897103.83744  23657359.0394
  24547744.3914   -3927205.44146  -2567055.09843  24547739.6334
 15  3 17  1 38 30.0000000  0 11G21G27G14G18G19G04G32G22G11G16G15
  24111501.3134   -6179629.29546  -4090798.88544  24111496.1764
  20350501.0394  -25063270.84648 -19476136.50548  20350498.2664
  24812640.6564   -5559279.29146  -3435373.82143  24812635.4694
  21803326.8204  -19967106.99148 -15131749.00446  21803321.2194
  20718953.2034  -24118868.29848 -18742431.11047  20718946.2854
  22691575.3834  -13187767.30147  -8519371.39945  22691570.8634
  24645160.3834    -870547.35646   -621707.07243  24645158.5044
  20627270.1414  -24544008.23949 -19069032.41047  20627262.6414
  23918188.4304   -7689443.19047  -5851489.69343  23918181.8134
  23677764.2974   -7566987.88547  -4813568.65744  23677758.8554
  24559348.5234   -3866228.04746  -2519540.22043  24559342.6094
 15  3 17  1 39  0.0000000  0 11G21G27G14G18G19G04G32G22G11G16G15
  24127109.5004   -6097610.91246  -4026888.46843  24127103.9454
  20355115.1644  -25039023.55548 -19457242.52948  20355112.2074
  24793713.7114   -5658735.21345  -3512871.82143  24793710.5434
  21813255.6644  -19914932.73948 -15091093.74246  21813249.6564
  20712083.9614  -24154966.38648 -18770559.47947  20712077.5784
  22673553.2504  -13282473.88047  -8593168.70645  22673549.0824
  24622238.0784    -991008.89146   -715573.15343  24622235.6684
  20624773.7114  -24557125.98849 -19079254.02247  20624766.0984
  23897773.2974   -7796720.28947  -5935082.20843  23897767.7544
  23698197.3284   -7459608.62847  -4729896.54144  23698193.2194
  24571042.4614   -3804769.37846  -2471650.28043  24571037.0784
 15  3 17  1 39 30.0000000  0 11G21G27G14G18G19G04G32G22G11G16G15
  24142737.5234   -6015484.70246  -3962894.02844  24142732.0234
  20359828.4774  -25014256.73749 -19437943.73148  20359825.1294
  24774798.7584   -5758140.93946  -3590330.71943  24774794.0234
  21823256.8984  -19862375.66948 -15050140.18146  21823251.1994
  20705306.2034  -24190584.72248 -18798314.02247  20705299.2424
  22655569.8594  -13376977.38247  -8666807.75945  22655565.6884
  24599331.3364   -1111388.08746   -809375.11743  24599327.8914
  20622376.1724  -24569726.77149 -19089072.80547  20622368.5274
  23877379.8594   -7903887.48347  -6018589.05643  23877375.1254
  23718663.4304   -7352056.69247  -4646089.88744  23718659.1024
  24582829.5004   -3742831.53946  -2423386.98743  24582823.3404
 15  3 17  1 40  0.0000000  0 11G21G27G14G18G19G04G32G22G11G16G15
  24158385.3914   -5933252.93146  -3898817.40644  24158380.6914
  20364639.9774  -24988971.43048 -19418240.91548  20364636.7274
  24755893.2504   -5857494.61946  -3667749.24142  24755886.8204
  21833330.1174  -19809438.40648 -15008890.36646  21833324.4614
  20698619.6174  -24225723.09748 -18825694.57447  20698612.8714
  22637624.7194  -13471277.56647  -8740288.39445  22637621.2974
  24576439.1094   -1231683.44746   -903111.77143  24576436.6414
  20620076.2894  -24581811.39049 -19098489.38147  20620069.1024
  23857008.4614   -8010944.00247  -6102009.71144  23857002.9734
  23739163.0394   -7244335.95047  -4562151.66044  23739157.7664
  24594706.9614   -3680417.54046  -2374752.74643  24594701.0004
 15  3 17  1 40 30.0000000  0 11G21G27G14G18G19G04G32G22G11G16G15
  24174054.1254   -5850915.23746  -3834658.18643  24174048.6374
  20369550.3594  -24963166.90149 -19398133.50648  20369547.2304
  24736994.7894   -5956792.57145  -3745124.31243  24736990.2584
  21843476.0704  -19756121.84348 -14967344.99346  21843470.3754
  20692024.8594  -24260379.05548 -18852699.20947  20692017.7854
  22619719.2734  -13565372.34647  -8813608.95545  22619715.6954
  24553564.5784   -1351892.06046   -996780.76443  24553561.7664
  20617875.1954  -24593379.45248 -19107503.44447  20617867.7114
  23836658.0864   -8117887.48047  -6185342.26844  23836651.8324
  23759692.0164   -7136448.90647  -4478083.87344  23759688.0394
  24606674.0864   -3617528.97246  -2325748.63843  24606668.1914
 15  3 17  1 41  0.0000000  0 11G21G27G14G18G19G04G32G22G11G16G15
  24189741.7894   -5768471.12946  -3770416.01243  24189736.6724
  20374559.7194  -24936842.56348 -19377621.04748  20374556.6484
  24718110.3984   -6056031.38245  -3822453.13243  24718107.1094
  21853693.7114  -19702426.69648 -14925504.63246  21853688.3244
  20685521.9844  -24294550.28648 -18879326.14547  20685515.3094
  22601853.0394  -13659259.40147  -8886767.67545  22601849.4264
  24530705.5634   -1472010.70846  -1090379.70943  24530703.3204
  20615772.0864  -24604430.18448 -19116114.39347  20615764.5984
  23816328.1254   -8224715.75647  -6268585.03843  23816323.4694
  23780254.4614   -7028396.84746  -4393887.52444  23780249.6564
  24618730.4064   -3554166.74145  -2276375.48843  24618725.4614
 15  3 17  1 41 30.0000000  0 11G21G27G14G18G19G04G32G22G11G16G15
  24205450.3914   -5685922.88546  -3706092.74543  24205445.6524
  20379667.9144  -24909999.70949 -19356704.55548  20379664.6564
  24699237.8284   -6155209.02346  -3899734.35143  24699235.0044
  21863983.5864  -19648355.93148 -14883371.57346  21863977.8444
  20679111.8914  -24328236.82448 -18905575.38847  20679104.9064
  22584026.5944  -13752938.95047  -8959764.69345  22584021.4384
  24507866.5704   -1592038.38146  -1183907.72543  24507863.0274
  20613767.6254  -24614964.49949 -19124322.94347  20613760.0124
  23796022.4694   -8331428.46747  -6351737.78544  23796017.2464
  23800846.9384   -6920184.25047  -4309566.04544  23800841.3754
  24630877.9304   -3490334.19146  -2226635.88743  24630872.4064
 15  3 17  1 42  0.0000000  0 11G21G27G14G18G19G04G32G22G11G16G15
  24221178.3204   -5603271.56246  -3641689.14144  24221174.2664
  20384874.6484  -24882639.17749 -19335384.66648  20384872.1604
  24680376.9384   -6254323.60345  -3976966.47943  24680374.0234
  21874343.6414  -19593911.86548 -14840947.63246  21874337.8054
  20672793.9614  -24361438.34948 -18931446.71147  20672786.6334
  22566239.6334  -13846410.20947  -9032599.41345  22566235.2464
  24485042.3134   -1711973.34245  -1277363.55643  24485039.6684
  20611861.2114  -24624983.38948 -19132129.86547  20611853.2034
  23775737.2344   -8438024.51347  -6434799.60344  23775732.9614
  23821468.7664   -6811814.95346  -4225122.47744  23821464.6254
  24643113.5944   -3426034.04046  -2176531.85743  24643107.8794
 15  3 17  1 42 30.0000000  0 11G21G27G14G18G19G04G32G22G11G16G15
  24236926.9924   -5520515.94346  -3577204.30243  24236922.5084
  20390179.4614  -24854759.83649 -19313660.51348  20390176.0434
  24661528.8914   -6353370.90746  -4054146.22843  24661524.3954
  21884774.9844  -19539094.77147 -14798233.01246  21884769.4414
  20666569.1334  -24394151.69348 -18956937.62547  20666561.7274
  22548492.9924  -13939670.48247  -9105269.71345  22548488.0314
  24462238.5474   -1831812.17946  -1370744.40743  24462235.6724
  20610052.8204  -24634485.80649 -19139534.33647  20610045.0394
  23755474.7504   -8544501.43047  -6517768.58043  23755469.9654
  23842119.6024   -6703290.15846  -4140557.74844  23842115.9924
  24655439.1954   -3361267.11146  -2126064.11143  24655432.4734
 15  3 17  1 43  0.0000000  0 11G21G27G14G18G19G04G32G22G11G16G15
  24252693.6334   -5437658.09946  -3512639.76243  24252688.9414
  20395583.6564  -24826362.50748 -19291532.73948  20395580.4304
  24642695.0394   -6452348.29446  -4131271.42743  24642690.5784
  21895276.6644  -19483907.12947 -14755229.65346  21895271.1524
  20660436.6024  -24426376.02548 -18982047.49547  20660429.8444
  22530786.7814  -14032719.43247  -9177775.36645  22530781.1724
  24439452.6414   -1951553.00146  -1464048.88443  24439449.8134
  20608342.4614  -24643472.28548 -19146536.78347  20608335.0634
  23735236.0634   -8650858.40047  -6600644.13343  23735230.8204
  23862800.0634   -6594613.57546  -4055874.72544  23862795.6134
  24667852.3204   -3296036.26346  -2075234.84043  24667845.6764
 15  3 17  1 43 30.0000000  0 11G21G27G14G18G19G04G32G22G11G16G15
  24268480.6414   -5354698.13246  -3447995.64143  24268475.6604
  20401085.8834  -24797447.35649 -19269001.46448  20401082.6294
  24623872.6804   -6551252.89846  -4208339.88343  24623869.8204
  21905848.9844  -19428350.25148 -14711938.58746  21905843.3164
  20654397.7894  -24458109.97548 -19006775.25347  20654390.5864
  22513119.5164  -14125555.54447  -9250115.17145  22513116.1214
  24416686.7894   -2071193.59146  -1557275.34443  24416681.7894
  20606730.6254  -24651943.18548 -19153137.47447  20606723.2774
  23715020.4844   -8757093.72647  -6683424.88244  23715015.3244
  23883508.8594   -6485787.65946  -3971075.33944  23883504.4144
  24680352.3914   -3230343.23246  -2024045.42243  24680347.0594
 15  3 17  1 44  0.0000000  0 11G21G27G14G18G19G04G32G22G11G16G15
  24284287.2664   -5271635.96746  -3383271.91743  24284281.9734
  20406686.7664  -24768013.91249 -19246066.33248  20406683.6174
  24605067.0164   -6650081.52346  -4285349.13843  24605062.8164
  21916491.1644  -19372425.19348 -14668360.61946  21916485.7934
  20648452.6644  -24489351.40448 -19031119.22847  20648445.5824
  22495494.6804  -14218176.76547  -9322287.53345  22495490.2194
  24393938.1644   -2190730.99946  -1650421.35643  24393934.8754
  20605216.9844  -24659897.76149 -19159335.83747  20605209.5354
  23694827.9304   -8863205.09446  -6766108.99044  23694822.9414
  23904246.7664   -6376814.61747  -3886161.31944  23904242.3014
  24692940.2664   -3164189.69746  -1972497.25943  24692936.0824
 15  3 17  1 44 30.0000000  0 11G21G27G14G18G19G04G32G22G11G16G15
  24300112.1724   -5188473.05946  -3318469.71443  24300107.6454
  20412386.0314  -24738063.40749 -19222728.28548  20412383.0084
  24586275.7734   -6748831.62346  -4362297.36343  24586269.8914
  21927202.9224  -19316134.66247 -14624497.87646  21927197.2624
  20642601.4534  -24520100.14348 -19055079.29147  20642594.3484
  22477910.5004  -14310583.11447  -9394292.45645  22477905.9064
  24371211.9384   -2310163.87446  -1743485.90944  24371208.5004
  20603801.3524  -24667337.28748 -19165132.86347  20603793.6024
  23674659.5314   -8969191.74947  -6848695.97043  23674654.0234
  23925010.5554   -6267698.48146  -3801135.81944  23925006.1564
  24705615.8524   -3097578.59246  -1920592.45443  24705611.7464
 15  3 17  1 45  0.0000000  0 11G21G27G14G18G19G04G32G22G11G16G15
  24315956.9614   -5105210.11946  -3253589.55543  24315951.4534
  20418184.0314  -24707595.99148 -19198987.44848  20418180.9534
  24567499.3984   -6847500.52146  -4439182.16343  24567495.2894
  21937983.5084  -19259480.41547 -14580351.71346  21937978.7074
  20636844.2274  -24550354.76348 -19078654.31747  20636837.1884
  22460367.5234  -14402772.90247  -9466128.62245  22460362.6564
  24348504.3524   -2429489.82346  -1836467.12043  24348501.4534
  20602483.5084  -24674261.87148 -19170528.63847  20602475.9804
  23654515.6254   -9075052.15147  -6931184.65144  23654508.7894
  23945801.6884   -6158442.05646  -3716000.97044  23945796.5664
  24718379.0164   -3030511.89646  -1868332.73843  24718374.5274
 15  3 17  1 45 30.0000000  0 11G21G27G14G18G19G04G32G22G11G16G15
  24331820.4144   -5021847.28646  -3188631.53243  24331815.2274
  20424080.2734  -24676611.67949 -19174843.84748  20424077.1844
  24548738.4454   -6946084.95846  -4516001.09143  24548735.2704
  21948833.4924  -19202463.80348 -14535923.20046  21948828.2154
  20631181.3674  -24580113.88348 -19101843.24447  20631173.9964
  22442865.9384  -14494744.41447  -9537794.72645  22442861.4224
  24325818.6334   -2548706.14146  -1929363.01343  24325814.0904
  20601263.8594  -24680671.29048 -19175522.97747  20601255.8244
  23634393.7734   -9180784.83547  -7013573.64744  23634389.7814
  23966618.3674   -6049048.75047  -3630759.45244  23966613.7814
  24731227.4224   -2962991.75846  -1815719.61343  24731221.8554
 15  3 17  1 46  0.0000000  0 11G21G27G14G18G19G04G32G22G11G16G15
  24347702.3524   -4938385.21546  -3123596.14643  24347697.7774
  20430074.7274  -24645110.88749 -19150297.79048  20430071.1054
  24529996.4454   -7044582.17346  -4592752.18643  24529991.0084
  21959752.6724  -19145086.44447 -14491213.56546  21959747.3054
  20625612.5944  -24609376.22848 -19124645.07847  20625605.9344
  22425405.8134  -14586496.84247  -9609290.10045  22425401.2464
  24303152.9534   -2667810.87846  -2022171.92543  24303149.2234
  20600142.0554  -24686566.06148 -19180116.29447  20600134.2734
  23614299.0084   -9286388.20447  -7095861.90944  23614294.1294
  23987459.9064   -5939520.19446  -3545412.58144  23987457.4264
  24744162.2974   -2895020.31846  -1762754.84543  24744156.3834
 15  3 17  1 46 30.0000000  0 11G21G27G14G18G19G04G32G22G11G16G15
  24363603.2974   -4854825.23546  -3058484.55543  24363598.7734
  20436166.9304  -24613094.22349 -19125349.75848  20436163.9104
  24511269.9694   -7142989.70246  -4669433.40943  24511265.0204
  21970738.9844  -19087350.25548 -14446224.33046  21970733.6294
  20620139.2664  -24638140.49248 -19147058.79247  20620131.9264
  22407987.6804  -14678029.08847  -9680613.89145  22407983.3714
  24280510.7584   -2786801.85846  -2114892.07544  24280507.0634
  20599118.2814  -24691946.49548 -19184308.83847  20599110.7464
  23594228.3444   -9391860.96047  -7178048.47844  23594221.4884
  24008328.4064   -5829859.69447  -3459962.91044  24008324.1524
  24757182.4064   -2826600.49146  -1709440.67543  24757176.5234
 15  3 17  1 47  0.0000000  0 11G21G27G14G18G19G04G32G22G11G16G15
  24379523.8834   -4771167.21646  -2993296.51643  24379518.2774
  20442358.0004  -24580561.73349 -19099999.77948  20442354.8754
  24492560.3284   -7241303.93746  -4746041.83643  24492556.9104
  21981793.8444  -19029256.80548 -14400956.71446  21981788.4694
  20614760.3914  -24666405.22548 -19169083.27947  20614753.4384
  22390611.3204  -14769339.59147  -9751764.91345  22390607.5044
  24257888.7734   -2905676.58745  -2207521.72143  24257885.8094
  20598192.0394  -24696813.03648 -19188100.94447  20598184.8484
  23574182.0164   -9497200.98647  -7260131.62643  23574175.5164
  24029220.5234   -5720070.65147  -3374413.03244  24029216.0784
  24770286.9064   -2757733.83346  -1655778.34743  24770280.5704
 15  3 17  1 47 30.0000000  0 11G21G27G14G18G19G04G32G22G11G16G15
  24395461.2424   -4687412.03146  -2928032.74443  24395456.0314
  20448647.0944  -24547513.69049 -19074248.06348  20448643.6804
  24473870.9614   -7339522.32346  -4822575.55843  24473867.1884
  21992916.4454  -18970807.99647 -14355412.19146  21992910.3524
  20609477.1724  -24694169.30048 -19190717.62847  20609470.7544
  22373278.6174  -14860427.13847  -9822742.17745  22373273.8484
  24235290.1094   -3024432.83945  -2300059.10043  24235285.8984
  20597363.8914  -24701165.77548 -19191492.67147  20597356.3984
  23554162.5004   -9602406.73347  -7342110.03144  23554158.0704
  24050136.9774   -5610155.30647  -3288764.75444  24050132.3484
  24783476.4064   -2688422.39546  -1601769.46843  24783470.7384
 15  3 17  1 48  0.0000000  0 11G21G27G14G18G19G04G32G22G11G16G15
  24411417.4384   -4603560.41746  -2862693.87943  24411413.1294
  20455033.3834  -24513951.01849 -19048095.34148  20455030.5394
  24455199.4844   -7437642.07746  -4899032.53143  24455194.1374
  22004106.2424  -18912005.70548 -14309592.22446  22004100.4224
  20604289.4694  -24721431.64848 -19211961.02447  20604282.4414
  22355987.2894  -14951290.74847  -9893544.97345  22355983.1214
  24212715.5864   -3143068.62746  -2392502.55444  24212711.4144
  20596633.0554  -24705005.19648 -19194484.42147  20596625.7734
  23534168.3204   -9707477.35347  -7423983.18644  23534163.5124
  24071076.5474   -5500117.28647  -3203020.91444  24071072.0634
  24796749.8594   -2618669.03446  -1547416.13843  24796744.3484
 15  3 17  1 48 30.0000000  0 11G21G27G14G18G19G04G32G22G11G16G15
  24427392.6644   -4519612.92846  -2797280.29543  24427387.7934
  20461518.2274  -24479873.62949 -19021541.54648  20461515.2074
  24436546.6564   -7535660.28546  -4975410.37443  24436541.8874
  22015362.5864  -18852851.41248 -14263497.96946  22015357.1134
  20599197.1024  -24748190.65948 -19232812.20147  20599190.1764
  22338739.8594  -15041928.76247  -9964171.96145  22338735.1484
  24190163.1174   -3261581.30646  -2484850.07044  24190159.6914
  20596000.4694  -24708331.72948 -19197076.52347  20595993.6134
  23514199.5634   -9812410.71947  -7505749.42743  23514194.0084
  24092038.6484   -5389959.05647  -3117183.36343  24092034.1844
  24810107.4924   -2548475.66446  -1492720.03643  24810102.1054
 15  3 17  1 49  0.0000000  0 11G21G27G14G18G19G04G32G22G11G16G15
  24443385.3524   -4435569.80646  -2731792.19743  24443380.7344
  20468100.9224  -24445281.66149 -18994586.77248  20468097.4964
  24417914.5554   -7633573.33446  -5051706.21143  24417910.1564
  22026685.7344  -18793346.58248 -14217130.57446  22026680.4734
  20594201.1804  -24774445.16248 -19253270.25547  20594194.4804
  22321535.0314  -15132339.61247 -10034621.93845  22321530.2814
  24167633.5474   -3379968.47446  -2577099.76043  24167630.8204
  20595465.5554  -24711144.69648 -19199268.43547  20595458.1844
  23494258.4534   -9917205.17947  -7587407.44544  23494251.8284
  24113023.2194   -5279682.97746  -3031253.96843  24113018.5984
  24823548.3834   -2477844.10746  -1437682.51243  24823542.0864
 15  3 17  1 49 30.0000000  0 11G21G27G14G18G19G04G32G22G11G16G15
  24459395.8284   -4351432.27446  -2666230.53343  24459390.6414
  20474781.1644  -24410176.48649 -18967232.10248  20474778.1844
  24399302.4224   -7731379.40146  -5127918.68543  24399298.5434
  22038075.4534  -18733493.49847 -14170491.80946  22038069.8834
  20589301.1804  -24800194.82048 -19273334.92447  20589294.4144
  22304373.6094  -15222523.06447 -10104894.72245  22304369.2854
  24145130.8594   -3498228.43746  -2669250.44644  24145126.0354
  20595027.3444  -24713445.85748 -19201061.53647  20595020.3134
  23474343.1644  -10021859.83347  -7668956.46944  23474338.1214
  24134031.0704   -5169292.51546  -2945235.48944  24134026.1844
  24837071.7034   -2406777.71346  -1382306.08243  24837065.6844
 15  3 17  1 50  0.0000000  0 11G21G27G14G18G19G04G32G22G11G16G15
  24475425.2814   -4267200.17146  -2600595.14243  24475419.7704
  20481559.0314  -24374557.62149 -18939477.14448  20481556.0744
  24380711.5784   -7829074.73946  -5204044.88943  24380706.7664
  22049531.6254  -18673293.08348 -14123582.40946  22049526.1804
  20584497.8284  -24825437.30048 -19293004.38447  20584490.8834
  22287256.3984  -15312476.95747 -10174988.64845  22287251.4184
  24122650.7974   -3616358.28646  -2761299.68244  24122648.2584
  20594686.7194  -24715234.72648 -19202455.45647  20594678.9804
  23454454.2274  -10126372.40447  -7750394.70744  23454450.2704
  24155058.2894   -5058791.07646  -2859130.51744  24155054.4224
  24850677.8754   -2335277.93046  -1326591.95543  24850672.0514
 15  3 17  1 50 30.0000000  0 11G21G27G14G18G19G04G32G22G11G16G15
  24491471.7734   -4182874.40546  -2534886.78943  24491467.1414
  20488435.0784  -24338425.83949 -18911322.51148  20488432.0204
  24362142.3754   -7926656.70146  -5280082.77643  24362137.8714
  22061052.7344  -18612747.69148 -14076404.18446  22061047.2814
  20579791.1484  -24850171.78448 -19312278.01747  20579783.9384
  22270181.8134  -15402200.33747 -10244902.94345  22270177.4344
  24100195.6024   -3734356.13646  -2853245.93343  24100193.5944
  20594443.5234  -24716512.02648 -19203450.74747  20594436.0704
  23434594.5004  -10230741.35347  -7831721.15944  23434587.8484
  24176106.0314   -4948180.18546  -2772940.22043  24176101.9734
  24864365.3594   -2263347.31146  -1270542.11643  24864360.4144
 15  3 17  1 51  0.0000000  0 11G21G27G14G18G19G04G32G22G11G16G15
  24507535.7114   -4098456.54346  -2469106.68843  24507531.7464
  20495407.9454  -24301782.46349 -18882769.24248  20495404.9184
  24343595.7344   -8024123.02846  -5356030.50843  24343591.3524
  22072639.5084  -18551859.62548 -14028958.95146  22072634.0594
  20575180.9064  -24874398.29548 -19331155.82247  20575174.0594
  22253152.5554  -15491692.42347 -10314637.00045  22253148.1764
  24077768.8204   -3852220.32946  -2945088.29244  24077763.6724
  20594297.8594  -24717279.02948 -19204048.39847  20594290.2424
  23414760.8204  -10334966.29847  -7912935.34844  23414755.5984
  24197175.9924   -4837463.91047  -2686667.82043  24197170.7624
  24878135.3364   -2190988.86846  -1214158.91143  24878129.6724
 15  3 17  1 51 30.0000000  0 11G21G27G14G18G19G04G32G22G11G16G15
  24523617.7734   -4013946.12446  -2403254.44143  24523613.2544
  20502478.4144  -24264627.13449 -18853817.04448  20502475.3204
  24325070.6564   -8121470.26246  -5431885.46343  24325067.1414
  22084290.9924  -18490630.36048 -13981247.83546  22084285.7934
  20570667.8674  -24898114.75748 -19349636.17947  20570660.6024
  22236166.8524  -15580951.59347 -10384189.59245  22236162.6484
  24055363.3364   -3969947.92546  -3036824.04543  24055361.1724
  20594248.8914  -24717535.18548 -19204247.98547  20594240.6374
  23394955.6884  -10439044.64947  -7994035.27844  23394950.1174
  24218263.9614   -4726644.68246  -2600315.20444  24218259.9694
  24891986.4384   -2118204.05346  -1157443.46844  24891980.2304
 15  3 17  1 52  0.0000000  0 11G21G27G14G18G19G04G32G22G11G16G15
  24539716.8444   -3929343.32746  -2337330.23743  24539712.0864
  20509646.2734  -24226959.86449 -18824465.93348  20509643.3284
  24306569.1484   -8218694.71746  -5507644.72243  24306564.7934
  22096007.2734  -18429060.79748 -13933271.55246  22096002.1374
  20566252.3444  -24921318.98048 -19367717.40047  20566245.2974
  22219226.5314  -15669975.63347 -10453558.95345  22219221.6294
  24032988.1174   -4087536.03946  -3128451.08243  24032985.3634
  20594297.2274  -24717280.44248 -19204049.48247  20594289.7464
  23375177.8984  -10542974.36847  -8075019.39544  23375172.6604
  24239370.9454   -4615724.99247  -2513884.34143  24239366.9184
  24905917.3134   -2044994.93646  -1100397.42843  24905911.6644
 15  3 17  1 52 30.0000000  0 11G21G27G14G18G19G04G32G22G11G16G15
  24555833.3914   -3844649.89946  -2271335.37943  24555828.9654
  20516911.1254  -24188782.18349 -18794717.10948  20516908.1484
  24288092.7274   -8315794.49746  -5583306.92144  24288087.1214
  22107787.8754  -18367153.63848 -13885032.21446  22107782.4344
  20561933.9384  -24944011.22548 -19385399.66647  20561927.1174
  22202330.1024  -15758764.60747 -10522745.13845  22202326.0234
  24010639.3364   -4204983.36946  -3219968.51744  24010635.3404
  20594442.8524  -24716516.40648 -19203454.11747  20594435.1724
  23355429.2194  -10646754.88147  -8155887.28644  23355423.9414
  24260497.6254   -4504708.40747  -2427377.95043  24260492.0394
  24919928.2814   -1971364.88946  -1043023.35043  24919922.6884
 15  3 17  1 53  0.0000000  0 11G21G27G14G18G19G04G32G22G11G16G15
  24571967.8754   -3759865.51046  -2205269.68343  24571963.0044
  20524273.4924  -24150093.82249 -18764570.34248  20524270.0274
  24269638.4064   -8412765.81046  -5658868.93843  24269634.6414
  22119632.6024  -18304909.63548 -13836530.39046  22119627.0234
  20557713.7194  -24966189.51448 -19402681.45347  20557706.7384
  22185479.2274  -15847316.54147 -10591746.63345  22185475.1334
  23988317.0784   -4322286.98146  -3311373.96443  23988313.0164
  20594685.1174  -24715242.53348 -19202461.47847  20594677.8794
  23335709.2664  -10750384.01347  -8236637.22444  23335703.4694
  24281641.0004   -4393596.69847  -2340797.38044  24281636.3594
  24934019.7584   -1897315.28346   -985322.35643  24934013.5784
 15  3 17  1 53 30.0000000  0 11G21G27G14G18G19G04G32G22G11G16G15
  24588119.1564   -3674991.04246  -2139133.72143  24588114.4384
  20531732.5164  -24110895.75249 -18734026.39948  20531729.5084
  24251210.3914   -8509606.24646  -5734328.92543  24251206.8834
  22131540.7034  -18242331.24548 -13787768.01446  22131535.1804
  20553591.1724  -24987853.23048 -19419562.28047  20553584.0824
  22168674.0474  -15935630.16247 -10660562.43045  22168669.6454
  23966022.7274   -4439444.95646  -3402665.78844  23966019.9414
  20595024.3284  -24713460.00248 -19201072.48647  20595016.9774
  23316017.9224  -10853859.99947  -8317267.81644  23316013.0044
  24302802.2734   -4282393.71147  -2254145.76144  24302797.9844
  24948190.0234   -1822849.14646   -927296.80343  24948184.0704
 15  3 17  1 54  0.0000000  0 10G21G27G14G18G19G04G32G22G11G16
  24604286.7114   -3590028.36246  -2072929.08343  24604281.8014
  20539288.0634  -24071189.82949 -18703086.73248  20539285.1294
  24232808.6334   -8606314.19946  -5809685.74243  24232803.4104
  22143512.5394  -18179421.25148 -13738747.25846  22143506.7974
  20549566.6094  -25009002.66548 -19436042.35448  20549559.6764
  22151913.2504  -16023705.66647 -10729192.66645  22151908.8554
  23943756.0084   -4556456.17047  -3493843.38543  23943752.5434
  20595460.0784  -24711170.62848 -19199288.55147  20595452.4414
  23296356.1174  -10957182.75347  -8397779.01644  23296350.7664
  24323980.0234   -4171103.15447  -2167425.89044  24323976.6724
 15  3 17  1 54 30.0000000  0 11G21G27G14G18G19G04G32G22G11G16G01
  24620471.2034   -3504976.85746  -2006655.21843  24620466.8404
  20546940.8984  -24030974.77149 -18671750.33548  20546937.9494
  24214430.3984   -8702884.90546  -5884935.71543  24214426.1024
  22155546.8524  -18116179.73548 -13689468.16546  22155541.1174
  20545640.5004  -25029634.77948 -19452119.33247  20545633.5434
  22135199.3674  -16111539.77748 -10797634.79246  22135194.8134
  23921517.5474   -4673316.65246  -3584903.55443  23921514.0984
  20595992.3284  -24708372.77648 -19197108.39947  20595984.6134
  23276724.2424  -11060348.82547  -8478168.12444  23276718.9064
  24345173.6024   -4059726.55547  -2080638.97243  24345169.5634
  24793270.8054    -870695.87056   -618866.73353  24793269.4224
 15  3 17  1 55  0.0000000  0 11G21G27G14G18G19G04G32G22G11G16G01
  24636671.8524   -3419843.80546  -1940317.78443  24636667.7624
  20554689.0164  -23990258.61949 -18640023.47948  20554685.9884
  24196079.5004   -8799323.03946  -5960082.24743  24196074.8404
  22167642.4304  -18052616.11048 -13639938.07446  22167636.6524
  20541811.3674  -25049755.87848 -19467798.10547  20541804.3244
  22118529.7734  -16199138.85547 -10865893.78246  22118525.1954
  23899307.9064   -4790031.58247  -3675850.18544  23899305.0314
  20596619.9064  -24705074.39048 -19194538.22247  20596612.2974
  23257121.4144  -11163363.91147  -8558439.61344  23257115.0394
  24366384.1564   -3948273.62647  -1993792.52344  24366378.5274
  24773974.4224    -972101.31846   -697883.91843  24773972.8404
 15  3 17  1 55 30.0000000  0 11G21G27G14G18G19G04G32G22G11G16G01
  24652891.4534   -3334611.11446  -1873902.67043  24652886.4184
  20562535.8444  -23949023.15049 -18607891.96348  20562532.7624
  24177757.5704   -8895606.20547  -6035108.01844  24177753.5744
  22179802.8284  -17988712.90548 -13590143.36346  22179797.2974
  20538083.5234  -25069345.94948 -19483063.09647  20538076.4884
  22101909.1024  -16286482.77147 -10933953.96145  22101904.2194
  23877129.7504   -4906579.70847  -3766666.90344  23877126.3914
  20597346.4064  -24701257.14848 -19191563.73947  20597338.5904
  23237550.7274  -11266207.85747  -8638577.70844  23237545.4614
  24387610.0704   -3836728.36147  -1906874.21944  24387606.2544
  24754690.1884   -1073433.64546   -776844.08343  24754689.7854
 15  3 17  1 56  0.0000000  0 11G21G27G14G18G19G04G32G22G11G16G01
  24669131.6414   -3249268.48046  -1807401.97543  24669126.6094
  20570483.4614  -23907257.96749 -18575347.67548  20570480.5204
  24159467.1724   -8991720.91746  -6110002.58043  24159462.4104
  22192029.5704  -17924461.21148 -13540077.12046  22192024.1804
  20534458.9304  -25088393.13148 -19497905.07147  20534451.4534
  22085338.4844  -16373559.01947 -11001805.56045  22085333.8634
  23854985.3674   -5022947.93546  -3857343.42343  23854982.1564
  20598173.3284  -24696910.70048 -19188176.89247  20598166.1644
  23218015.2344  -11368867.67747  -8718572.35144  23218010.1524
  24408854.7274   -3725083.12946  -1819877.96743  24408850.8594
  24735423.6094   -1174680.90745   -855737.99643  24735423.5314
 15  3 17  1 56 30.0000000  0 11G21G27G14G18G19G04G32G22G11G16G01
  24685382.8524   -3163866.85246  -1740855.30843  24685377.8054
  20578522.3054  -23865014.11049 -18542430.41148  20578519.0944
  24141199.3524   -9087714.46846  -6184802.74843  24141195.0984
  22204312.6644  -17859912.90148 -13489779.74646  22204307.0984
  20530928.3284  -25106946.81048 -19512362.48647  20530921.3754
  22068809.7114  -16460416.88747 -11069486.99245  22068805.4304
  23832866.4694   -5139184.27046  -3947917.18244  23832862.7664
  20599091.5784  -24692086.19848 -19184417.52447  20599083.8874
  23198505.3674  -11471392.43847  -8798461.73044  23198500.3284
  24430109.3674   -3613390.36146  -1732844.66643  24430105.0084
  24716163.7734   -1275892.43446   -934604.06643  24716163.8204
 15  3 17  1 57  0.0000000  0 11G21G27G14G18G19G04G32G22G11G16G01
  24701649.8284   -3078379.53146  -1674241.83643  24701645.3984
  20586657.0784  -23822264.86649 -18509119.32748  20586653.9184
  24122962.0314   -9183556.64547  -6259484.94744  24122958.1914
  22216657.0474  -17795042.46148 -13439231.36046  22216651.5354
  20527496.8054  -25124978.73248 -19526413.34047  20527490.1914
  22052328.5784  -16547027.64847 -11136975.87046  22052324.2114
  23810778.2034   -5255259.04146  -4038365.03944  23810775.2974
  20600105.8054  -24686756.85348 -19180264.78647  20600098.3634
  23179027.2734  -11573753.10747  -8878223.28444  23179020.7584
  24451377.2894   -3501626.16546  -1645755.66843  24451372.7424
  24696916.9144   -1377040.22846  -1013420.46343  24696915.4844
 15  3 17  1 57 30.0000000  0 11G21G27G14G18G19G04G32G22G11G16G01
  24717934.5084   -2992808.51646  -1607563.17043  24717928.2274
  20594887.8444  -23779012.52649 -18475416.21948  20594884.9734
  24104752.4534   -9279246.23946  -6334048.19144  24104749.5434
  22229062.6724  -17729853.41048 -13388434.70446  22229057.1644
  20524164.9454  -25142489.15048 -19540057.81948  20524158.0864
  22035893.7894  -16633391.69047 -11204272.49346  22035889.2194
  23788719.6804   -5371171.72846  -4128686.55443  23788717.4344
  20601215.5474  -24680924.90348 -19175720.40447  20601208.0394
  23159579.9924  -11675948.99747  -8957856.39944  23159574.0474
  24472658.1254   -3389794.38446  -1558614.05843  24472654.0164
  24677680.3134   -1478124.74646  -1092187.53743  24677680.5944
 15  3 17  1 58  0.0000000  0 11G21G27G14G18G19G04G32G22G11G16G01
  24734233.9694   -2907151.21546  -1540817.24643  24734228.4494
  20603214.5164  -23735254.92449 -18441319.39947  20603211.5514
  24086573.7584   -9374777.07146  -6408487.72143  24086569.8134
  22241527.8594  -17664344.42348 -13337388.75646  22241522.1804
  20520932.6804  -25159474.37149 -19553293.06147  20520925.5274
  22019507.3594  -16719504.88047 -11271373.66346  22019502.8204
  23766695.0314   -5486917.00046  -4218877.67944  23766691.2544
  20602421.3594  -24674588.01748 -19170782.56347  20602413.5434
  23140165.1484  -11777975.94547  -9037357.87444  23140159.5784
  24493952.5784   -3277895.21246  -1471419.98343  24493947.7854
  24658457.9614   -1579142.38846  -1170902.48243  24658457.1094
 15  3 17  1 58 30.0000000  0 11G21G27G14G18G19G04G32G22G11G16G01
  24750550.1954   -2821411.02546  -1474006.71543  24750544.5904
  20611637.0164  -23690994.85549 -18406831.06047  20611634.0984
  24068425.9924   -9470148.40247  -6482803.11343  24068420.0984
  22254054.5474  -17598519.68948 -13286096.74946  22254048.6054
  20517800.2664  -25175935.49548 -19566119.91847  20517793.2274
  22003168.2194  -16805368.03847 -11338279.98946  22003163.8484
  23744701.1564   -5602494.88946  -4308938.39644  23744697.9414
  20603722.7114  -24667748.91348 -19165453.37947  20603714.9264
  23120781.6484  -11879834.68547  -9116728.27744  23120776.2734
  24515258.2424   -3165933.79947  -1384177.28643  24515253.0784
  24639247.5474   -1680094.17946  -1249566.11243  24639245.8834
 15  3 17  1 59  0.0000000  0 11G21G27G14G18G19G04G32G22G11G16G01
  24766882.6724   -2735587.75446  -1407131.47843  24766877.0664
  20620155.0634  -23646232.73949 -18371951.50048  20620152.0084
  24050307.5164   -9565357.06946  -6556991.64644  24050304.0394
  22266640.1414  -17532380.61747 -13234559.81446  22266634.5784
  20514767.9534  -25191871.33048 -19578537.45747  20514761.0004
  21986876.8444  -16890979.26847 -11404989.99645  21986872.0474
  23722739.4694   -5717902.77146  -4398866.53344  23722736.8134
  20605119.7814  -24660407.85548 -19159733.06847  20605112.0704
  23101430.5314  -11981523.00547  -9195965.92044  23101424.4414
  24536573.5704   -3053912.82046  -1296888.19843  24536570.0314
  24620049.4224   -1780979.00546  -1328177.58943  24620048.3364
 15  3 17  1 59 30.0000000  0 11G21G27G14G18G19G04G32G22G11G16G01
  24783229.0234   -2649680.22546  -1340190.56543  24783224.0314
  20628768.5944  -23600967.53649 -18336679.93147  20628765.7074
  24032221.6484   -9660398.45246  -6631049.78143  24032218.2074
  22279285.8594  -17465927.10647 -13182777.86646  22279280.1914
  20511835.8594  -25207279.17448 -19590543.56948  20511829.2234
  21970633.6334  -16976335.78848 -11471501.54746  21970629.4804
  23700812.0314   -5833136.57246  -4488659.09644  23700808.4184
  20606612.3674  -24652563.79448 -19153620.80147  20606604.3754
  23082113.6644  -12083037.59946  -9275068.15244  23082107.6024
  24557902.0784   -2941832.93146  -1209553.27843  24557898.5514
  24600864.6884   -1881794.12046  -1406734.65343  24600863.9144
 15  3 17  2  0  0.0000000  0 11G21G27G14G18G19G04G32G22G11G16G01
  24799592.3914   -2563692.01246  -1273186.83243  24799587.5554
  20637477.6724  -23555202.64149 -18301018.98648  20637474.6604
  24014168.3834   -9755271.96847  -6704977.17743  24014163.5004
  22291990.3754  -17399163.40047 -13130754.20946  22291984.5984
  20509003.9224  -25222160.60448 -19602139.49647  20508997.0434
  21954439.3674  -17061439.02947 -11537815.73546  21954434.8984
  23678915.5864   -5948196.69346  -4578316.33344  23678912.5394
  20608200.0474  -24644220.18048 -19147119.27347  20608192.5984
  23062828.2664  -12184379.31446  -9354035.67344  23062823.3164
  24579241.3364   -2829699.17546  -1122176.37144  24579237.3244
  24581693.2974   -1982541.33146  -1485238.89143  24581692.3444
 15  3 17  2  0 30.0000000  0 11G21G27G14G18G19G04G32G22G11G16G01
  24815971.3364   -2477621.95146  -1206119.23643  24815966.4884
  20646281.4384  -23508937.19349 -18264968.00047  20646278.4184
  23996147.3364   -9849973.21646  -6778770.37743  23996141.8014
  22304754.3444  -17332089.80447 -13078489.07346  22304748.2304
  20506272.6254  -25236513.15048 -19613323.30447  20506265.9264
  21938293.4384  -17146285.91648 -11603930.17046  21938288.5784
  23657054.9844   -6063079.23646  -4667835.15344  23657051.5164
  20609883.0234  -24635376.05648 -19140227.73947  20609875.4924
  23043577.5394  -12285544.58046  -9432865.72544  23043571.4844
  24600588.6954   -2717513.03546  -1034758.58543  24600584.4884
  24562535.7734   -2083218.15846  -1563688.29243  24562534.2114
 15  3 17  2  1  0.0000000  0 11G21G27G14G18G19G04G32G22G11G16G01
  24832361.1484   -2391491.47646  -1139004.63543  24832356.6134
  20655176.6884  -23462193.11949 -18228544.06348  20655173.3914
  23978155.1564   -9944520.48046  -6852443.53944  23978151.1994
  22317572.5944  -17264729.25047 -13026000.32446  22317566.7854
  20503638.2734  -25250357.07148 -19624110.77447  20503631.2584
  21922192.4844  -17230896.22348 -11669860.23546  21922188.0234
  23635223.5554   -6177803.01647  -4757230.28144  23635220.9884
  20611657.1334  -24626052.98048 -19132962.99647  20611649.6054
  23024356.5084  -12386553.37547  -9511573.83244  23024350.9654
  24621942.3284   -2605299.35446   -947319.34943  24621938.6684
  24543386.7194   -2183844.64245  -1642098.37443  24543385.4734
 15  3 17  2  1 30.0000000  0 11G21G27G14G18G19G04G32G22G11G16G01
  24848770.2194   -2305259.51846  -1071810.91943  24848766.1414
  20664170.6094  -23414929.52249 -18191715.29448  20664167.4964
  23960201.0474  -10038869.07047  -6925961.84444  23960197.5394
  22330452.6094  -17197042.01047 -12973257.02346  22330447.2274
  20501108.6884  -25263649.94848 -19634468.86547  20501101.7384
  21906144.9384  -17315227.07847 -11735572.56046  21906140.1054
  23613431.0314   -6292324.17946  -4846467.52943  23613427.3094
  20613530.4534  -24616210.37848 -19125293.43247  20613522.6454
  23005172.2114  -12487362.26546  -9590126.18044  23005167.5664
  24643310.4224   -2493018.08646   -859827.51744  24643304.9844
  24524255.0314   -2284378.33845  -1720436.24643  24524254.1764
 15  3 17  2  2  0.0000000  0 11G21G27G14G18G19G04G32G22G11G16G01
  24865195.3524   -2218947.67646  -1004554.97243  24865190.6684
  20673259.3674  -23367168.24349 -18154498.73347  20673256.3404
  23942282.5554  -10133036.77747  -6999339.21944  23942277.8324
  22343391.0784  -17129050.70847 -12920276.79346  22343385.4964
  20498680.2734  -25276411.71748 -19644413.10647  20498673.2074
  21890146.6094  -17399298.16448 -11801082.46746  21890142.0124
  23591672.7894   -6406661.48746  -4935561.51144  23591669.7304
  20615497.9614  -24605869.78748 -19117235.81547  20615490.1254
  22986023.3914  -12587990.21747  -9668537.56244  22986018.4064
  24664684.1174   -2380693.04846   -772301.50043  24664679.9964
  24505138.3134   -2384839.21345  -1798717.35543  24505137.0274
 15  3 17  2  2 30.0000000  0 11G21G27G14G18G19G04G32G22G11G16G01
  24881635.5554   -2132556.40146   -937237.13743  24881630.3524
  20682442.7034  -23318909.97549 -18116894.91448  20682439.4804
  23924396.6884  -10227020.47446  -7072573.27143  23924393.0944
  22356386.9614  -17060757.04647 -12867060.96046  22356381.3284
  20496352.8984  -25288641.36248 -19653942.69848  20496346.3164
  21874198.0234  -17483108.07348 -11866388.83746  21874193.8634
  23569951.6414   -6520812.49247  -5024510.34644  23569947.2774
  20617560.1024  -24595031.86748 -19108790.67547  20617552.6484
  22966909.3364  -12688435.43347  -9746806.56045  22966904.2544
  24686065.6254   -2268327.01245   -684743.54843  24686062.0044
  24486035.4064   -2485226.26946  -1876940.95843  24486033.5514
 15  3 17  2  3  0.0000000  0 11G21G27G14G18G19G04G32G22G11G16G01
  24898089.2814   -2046086.89946   -869858.35043  24898084.7584
  20691720.1804  -23270155.81049 -18078904.67948  20691716.7704
  23906547.7894  -10320817.99847  -7145662.22644  23906543.6294
  22369439.8674  -16992163.05147 -12813611.10446  22369434.6954
  20494127.1724  -25300338.29848 -19663057.20247  20494120.0984
  21858299.7114  -17566655.79348 -11931490.92746  21858295.0824
  23548264.0944   -6634775.25446  -5113312.44744  23548261.9534
  20619717.3134  -24583697.42548 -19099958.63747  20619709.4414
  22947831.1804  -12788696.35547  -9824931.93644  22947824.8094
  24707457.7424   -2155923.21546   -597156.21143  24707452.0514
  24466946.1334   -2585538.72546  -1955106.47543  24466944.9064
 15  3 17  2  3 30.0000000  0 11G21G27G14G18G19G04G32G22G11G16G01
  24914559.7424   -1959539.27946   -802418.69942  24914554.6564
  20701091.9614  -23220906.69449 -18040528.75647  20701089.0234
  23888735.1334  -10414426.27647  -7218603.70744  23888730.7074
  22382549.6414  -16923270.37447 -12759928.49846  22382544.1134
  20492002.8364  -25311501.92349 -19671756.13247  20491996.0434
  21842451.0634  -17649940.05848 -11996387.71946  21842446.5164
  23526614.4224   -6748547.59447  -5201966.17644  23526610.4774
  20621968.3984  -24571867.37648 -19090740.40947  20621960.7734
  22928786.3594  -12888771.58247  -9902912.61344  22928780.9064
  24728852.6254   -2043485.12546   -509542.12043  24728848.3594
  24447872.1254   -2685775.97046  -2033213.36143  24447869.9534
 15  3 17  2  4  0.0000000  0 11G21G27G14G18G19G04G32G22G11G16G01
  24931043.8364   -1872913.92646   -734918.48143  24931038.6414
  20710558.0554  -23171163.00049 -18001767.45947  20710554.8524
  23870957.8054  -10507841.63546  -7291394.86744  23870954.9224
  22395716.2504  -16854080.46547 -12706014.28946  22395710.9614
  20489980.3364  -25322131.02949 -19680038.56047  20489973.4774
  21826653.0784  -17732959.14148 -12061077.86646  21826648.6684
  23505001.3674   -6862126.71447  -5290469.36144  23504997.5704
  20624313.6564  -24559542.33848 -19081136.47747  20624306.0864
  22909779.2504  -12988659.05347  -9980746.98344  22909773.9964
  24750254.0704   -1931014.04745   -421902.37743  24750250.8874
  24428812.1254   -2785936.26746  -2111260.21843  24428810.5514
 15  3 17  2  4 30.0000000  0 11G21G27G14G18G19G04G32G22G11G16G01
  24947543.0554   -1786211.90446   -667358.51942  24947537.5474
  20720117.9384  -23120926.19949 -17962621.91448  20720114.6484
  23853218.7274  -10601061.95547  -7364034.03143  23853215.2464
  22408938.8284  -16784595.77248 -12651870.37845  22408933.0204
  20488059.4774  -25332225.27049 -19687904.20347  20488052.4224
  21810905.6644  -17815712.22948 -12125560.77546  21810901.0234
  23483424.7194   -6975511.00647  -5378820.71844  23483422.0594
  20626753.0394  -24546723.43549 -19071147.71547  20626745.3204
  22890806.7894  -13088357.53247 -10058434.09645  22890801.4414
  24771664.5314   -1818513.33246   -334239.44743  24771658.5394
  24409767.1954   -2886019.39946  -2189247.00843  24409764.5594
 15  3 17  2  5  0.0000000  0 11G21G27G14G18G19G04G32G22G11G16G01
  24964055.8984   -1699433.74046   -599739.13642  24964050.3674
  20729771.2344  -23070196.89049 -17923092.59948  20729768.2464
  23835517.8524  -10694083.73747  -7436518.54444  23835513.0084
  22422217.1564  -16714817.93447 -12597498.04445  22422211.4574
  20486240.5864  -25341783.28249 -19695351.99947  20486233.6724
  21795209.1024  -17898197.86948 -12189835.27446  21795204.6174
  23461886.0784   -7088697.89847  -5467018.24544  23461882.8204
  20629286.3834  -24533411.61649 -19060774.87147  20629278.7424
  22871871.8444  -13187864.79547 -10135972.21144  22871865.8164
  24793075.9534   -1705986.00746   -246555.78243  24793072.5084
  24390736.2194   -2986024.16246  -2267172.74543  24390734.6484
 15  3 17  2  5 30.0000000  0 11G28G27G14G18G19G04G32G22G11G16G01
  25238966.2974    -601057.63356   -424879.38353  25238960.0784
  20739518.6024  -23018973.75349 -17883178.48347  20739515.7074
  23817854.8524  -10786902.06047  -7508844.44844  23817851.3524
  22435551.1174  -16644746.30847 -12542896.76945  22435545.5554
  20484524.1094  -25350802.34348 -19702379.83847  20484517.3794
  21779563.7894  -17980412.29448 -12253898.42646  21779559.9144
  23440385.5164   -7201682.87647  -5555058.45544  23440381.6914
  20631913.4924  -24519604.87849 -19050016.36447  20631906.0784
  22852973.0784  -13287176.93447 -10213358.28745  22852967.3914
  24814494.4614   -1593432.22845   -158851.62243  24814490.9574
  24371721.9774   -3085947.23046  -2345034.82043  24371720.1484
 15  3 17  2  6  0.0000000  0 11G28G27G14G18G19G04G32G22G11G16G01
  25224098.4534    -679187.43746   -485759.72543  25224092.1914
  20749358.3134  -22967265.93149 -17842886.70347  20749355.1724
  23800230.1094  -10879521.89047  -7581015.68944  23800226.1914
  22448939.3524  -16574390.54147 -12488074.09845  22448933.6764
  20482909.2344  -25359289.48448 -19708993.20047  20482902.3484
  21763969.5784  -18062362.52948 -12317755.73646  21763964.9264
  23418922.4844   -7314471.98346  -5642946.00244  23418919.5514
  20634633.5164  -24505312.16549 -19038879.18847  20634625.5204
  22834110.6254  -13386300.50547 -10290597.41145  22834105.3164
  24835916.4924   -1480863.02246    -71135.33343  24835910.9654
  24352720.7034   -3185796.03946  -2422839.01743  24352719.3484
 15  3 17  2  6 30.0000000  0 11G28G27G14G18G19G04G32G22G11G16G01
  25209291.2664    -756997.87246   -546391.16943  25209285.9964
  20759291.7194  -22915065.07649 -17802210.74447  20759289.0744
  23782645.4384  -10971931.22547  -7653022.94944  23782640.7504
  22462383.1484  -16503743.52648 -12433024.47946  22462377.8594
  20481397.1094  -25367235.35148 -19715184.78647  20481389.9734
  21748426.9224  -18144038.08848 -12381399.01446  21748423.0394
  23397499.6334   -7427053.59147  -5730671.92544  23397496.0124
  20637447.2194  -24490525.46249 -19027357.06747  20637439.5394
  22815285.5944  -13485224.53947 -10367681.06544  22815279.9654
  24857341.2664   -1368271.65946     16598.25043  24857336.7664
  24333736.2504   -3285560.15646  -2500577.18243  24333734.7274
 15  3 17  2  7  0.0000000  0 11G28G27G14G18G19G04G32G22G11G16G01
  25194545.2734    -834489.95046   -606774.52543  25194539.8094
  20769318.1254  -22862375.87749 -17761154.24947  20769314.9064
  23765101.0474  -11064130.55147  -7724866.59044  23765095.9884
  22475881.2734  -16432810.69047 -12377752.14245  22475875.5044
  20479987.9454  -25374642.53448 -19720956.62047  20479981.1414
  21732936.5784  -18225441.30348 -12444830.05246  21732932.3204
  23376114.5004   -7539429.31046  -5818237.37944  23376111.1374
  20640354.1484  -24475249.45548 -19015453.68447  20640346.6294
  22796498.5314  -13583950.68447 -10444610.50345  22796492.9654
  24878770.3134   -1255664.83346    104343.73543  24878765.6884
  24314767.4064   -3385242.56846  -2578251.70743  24314766.0234
 15  3 17  2  7 30.0000000  0 11G28G27G14G18G19G04G32G22G11G16G01
  25179859.9614    -911661.17146   -666907.89143  25179854.1094
  20779437.3594  -22809198.74749 -17719717.54747  20779434.4694
  23747594.8984  -11156116.83547  -7796544.15544  23747592.3594
  22489433.6254  -16361593.41047 -12322258.16346  22489427.8094
  20478680.5864  -25381509.99449 -19726307.89347  20478673.7544
  21717497.8204  -18306570.14048 -12508047.29646  21717493.5394
  23354770.3524   -7651596.28947  -5905640.19644  23354766.2424
  20643354.0234  -24459484.26348 -19003169.11347  20643346.4344
  22777749.5314  -13682476.95147 -10521384.18844  22777744.0984
  24900200.6024   -1143044.67146    192099.74243  24900196.7704
  24295813.9534   -3484841.57446  -2655861.25343  24295812.5944
 15  3 17  2  8  0.0000000  0 11G28G27G14G18G19G04G32G22G11G16G01
  25165235.6644    -988509.02846   -726789.25543  25165231.3874
  20789649.6644  -22755534.61949 -17677901.36947  20789646.3754
  23730132.9224  -11247886.74347  -7868053.11844  23730128.3014
  22503039.4924  -16290093.20048 -12266543.72745  22503033.4574
  20477476.6804  -25387836.82748 -19731237.89748  20477470.1604
  21702112.2194  -18387423.52048 -12571049.90746  21702108.0394
  23333465.3134   -7763552.25947  -5992878.58244  23333461.9654
  20646446.9844  -24443230.77649 -18990504.05547  20646439.4574
  22759039.9384  -13780801.42547 -10598000.65145  22759033.1524
  24921633.4224   -1030413.74946    279864.09443  24921629.2274
  24276877.0634   -3584356.25845  -2733405.09243  24276875.5664
 15  3 17  2  8 30.0000000  0 11G28G27G14G18G19G04G32G22G11G16G01
  25150674.0084   -1065031.87246   -786417.41443  25150668.1804
  20799954.2424  -22701385.35348 -17635707.15347  20799950.9884
  23712710.9384  -11339438.21447  -7939391.94044  23712705.5084
  22516698.7584  -16218312.94947 -12210611.06946  22516693.5044
  20476375.1954  -25393623.24548 -19735746.81648  20476368.6414
  21686779.2194  -18468000.75748 -12633837.35746  21686774.4844
  23312201.3054   -7875295.75047  -6079951.39044  23312197.6374
  20649632.7504  -24426490.67849 -18977459.81847  20649625.1954
  22740367.3134  -13878923.03247 -10674459.01644  22740361.4304
  24943068.6564    -917775.79546    367633.93543  24943064.4064
  24257955.8054   -3683786.58345  -2810883.19443  24257954.4144
 15  3 17  2  9  0.0000000  0 11G28G27G14G18G19G04G32G22G11G16G01
  25136174.5314   -1141227.22346   -845790.43043  25136169.1214
  20810350.3834  -22646751.20449 -17593135.11347  20810347.4614
  23695331.1564  -11430767.72446  -8010557.76244  23695326.6414
  22530411.3834  -16146253.55248 -12154460.89845  22530405.5204
  20475377.5704  -25398867.87848 -19739833.55347  20475370.7584
  21671498.6254  -18548299.97848 -12696408.17546  21671494.0044
  23290978.6884   -7986823.85247  -6166856.38944  23290974.2584
  20652911.0864  -24409264.14348 -18964036.54747  20652902.9884
  22721734.2974  -13976839.23247 -10750757.33344  22721728.5274
  24964503.0554    -805132.73046    455407.74043  24964499.1524
  24239051.3524   -3783130.61846  -2888294.07343  24239050.0864
 15  3 17  2  9 30.0000000  0 11G28G27G14G18G19G04G32G22G11G16G01
  25121737.9064   -1217092.83746   -904906.41443  25121732.6414
  20820838.8284  -22591633.58948 -17550186.34747  20820835.9654
  23677993.9774  -11521872.50746  -8081548.45344  23677990.4924
  22544176.7734  -16073917.12448 -12098094.85645  22544170.9414
  20474482.7344  -25403570.50248 -19743497.94348  20474475.7384
  21656271.5084  -18628320.14748 -12758761.53546  21656266.8094
  23269796.7194   -8098134.70947  -6253592.07844  23269793.0044
  20656281.2424  -24391552.46549 -18950235.22947  20656273.6334
  22703140.5314  -14074548.96347 -10826894.75845  22703134.9494
  24985939.0164    -692487.34646    543183.31543  24985934.4694
  24220162.8984   -3882387.95946  -2965637.39243  24220161.7664
 15  3 17  2 10  0.0000000  0 11G28G27G14G18G19G04G32G22G11G16G01
  25107364.0164   -1292627.00146   -963764.09143  25107358.8714
  20831418.9454  -22536034.24548 -17506862.20447  20831416.0434
  23660701.6094  -11612750.22947  -8152362.22244  23660697.7344
  22557994.1644  -16001306.10348 -12041514.84746  22557988.2074
  20473690.9774  -25407730.94848 -19746739.85448  20473684.1484
  21641097.2504  -18708060.52948 -12820896.90546  21641092.1644
  23248655.8594   -8209226.76447  -6340157.26144  23248652.7894
  20659743.5704  -24373357.63048 -18936057.42747  20659735.5704
  22684586.6254  -14172051.10447 -10902870.42145  22684581.4924
  25007374.9534    -579843.36646    630957.85243  25007369.9694
  24201291.7814   -3981558.20946  -3042912.84143  24201289.9344
 15  3 17  2 10 30.0000000  0 11G28G27G14G18G19G04G32G22G11G16G01
  25093054.3754   -1367826.71146  -1022361.25543  25093048.4734
  20842090.9454  -22479953.43448 -17463162.89347  20842088.3404
  23643451.8914  -11703397.57646  -8222996.47144  23643447.6484
  22571863.6724  -15928421.24948 -11984721.46245  22571857.4654
  20473003.1174  -25411347.82448 -19749558.21348  20472996.0944
  21625976.7814  -18787519.10948 -12882812.65646  21625972.0634
  23227558.2974   -8320096.93047  -6426549.56944  23227554.5314
  20663297.9384  -24354679.11649 -18921502.73547  20663290.2934
  22666073.1334  -14269342.93047 -10978682.18945  22666067.3524
  25028809.0394    -467202.56345    718729.93443  25028804.4844
  24182437.2034   -4080639.61746  -3120119.12144  24182435.3554
 15  3 17  2 11  0.0000000  0 11G28G27G14G18G19G04G32G22G11G16G01
  25078807.7974   -1442689.72046  -1080696.01943  25078802.5514
  20852854.2344  -22423392.33749 -17419089.33547  20852851.2774
  23626246.1564  -11793811.35446  -8293448.75244  23626241.5164
  22585784.9534  -15855264.82447 -11927716.46246  22585779.2894
  20472418.2664  -25414420.69348 -19751952.65147  20472411.3524
  21610909.9534  -18866694.78148 -12944507.96546  21610905.3284
  23206502.6564   -8430743.28247  -6512767.45844  23206499.2424
  20666944.2114  -24335518.18748 -18906572.13747  20666936.3714
  22647599.4614  -14366422.46947 -11054328.56845  22647593.3874
  25050244.3524    -354567.54946    806497.42543  25050239.0824
  24163599.2664   -4179631.42946  -3197255.54744  24163598.1024
 15  3 17  2 11 30.0000000  0 11G28G27G14G18G19G04G32G22G11G16G01
  25064626.1254   -1517214.06446  -1138766.88843  25064621.1844
  20863708.2664  -22366352.06749 -17374642.38747  20863705.2544
  23609086.1644  -11883988.67746  -8363716.77944  23609081.8834
  22599757.2034  -15781838.41647 -11870501.08745  22599751.6294
  20471936.8284  -25416948.93548 -19753922.71748  20471929.4264
  21595896.9384  -18945586.15548 -13005981.73446  21595892.9534
  23185490.8284   -8541163.43647  -6598809.07644  23185487.9384
  20670682.0634  -24315876.08649 -18891266.59447  20670674.1884
  22629166.3054  -14463288.36547 -11129808.46545  22629160.0314
  25071674.1804    -241941.42246    894257.93842  25071670.8014
  24144779.1174   -4278532.54646  -3274321.32743  24144777.6524
 15  3 17  2 12  0.0000000  0 11G28G27G14G18G19G04G32G22G11G16G01
  25050509.6094   -1591397.90746  -1196572.46443  25050504.0744
  20874653.9224  -22308834.05648 -17329823.17447  20874651.3444
  23591970.8914  -11973926.99046  -8433798.54044  23591967.4844
  22613780.8364  -15708144.13947 -11813076.98045  22613775.2304
  20471559.6644  -25418932.43348 -19755468.31248  20471552.7814
  21580939.0704  -19024192.37948 -13067233.31946  21580934.6254
  23164521.3054   -8651355.75347  -6684673.18644  23164518.1254
  20674510.6884  -24295754.25048 -18875587.24747  20674503.4734
  22610774.0084  -14559939.04847 -11205120.63945  22610768.7854
  25093105.3524    -129326.78846    982009.74543  25093099.9024
  24125975.9224   -4377342.31746  -3351315.91543  24125974.4384
 15  3 17  2 12 30.0000000  0 11G28G27G14G18G19G04G32G22G11G16G01
  25036458.9384   -1665238.35646  -1254110.43643  25036452.9184
  20885690.0554  -22250839.14749 -17284632.35847  20885686.6564
  23574901.8054  -12063623.16746  -8503691.62244  23574898.6604
  22627855.2424  -15634183.62148 -11755445.41045  22627849.4774
  20471285.4844  -25420370.42448 -19756588.83248  20471278.9304
  21566035.3594  -19102511.70048 -13128261.34346  21566030.8164
  23143596.0704   -8761317.53147  -6770357.66044  23143592.9384
  20678431.2814  -24275153.25648 -18859534.51647  20678423.7344
  22592423.6024  -14656372.36047 -11280263.47945  22592417.5904
  25114531.5314     -16726.00045   1069750.61143  25114528.5904
  24107190.6564   -4476059.61446  -3428238.43243  24107189.3984
 15  3 17  2 13  0.0000000  0 11G28G27G14G18G19G04G32G22G11G16G01
  25022472.3364   -1738733.40646  -1311379.25543  25022467.3324
  20896816.7274  -22192368.59049 -17239070.90547  20896813.8484
  23557880.9774  -12153074.35946  -8573393.83644  23557876.2424
  22641979.7814  -15559959.03148 -11697608.06245  22641974.1024
  20471116.2194  -25421262.43248 -19757283.91048  20471109.3984
  21551186.5314  -19180543.09648 -13189065.01846  21551181.9494
  23122716.2584   -8871046.69447  -6855860.86744  23122712.2934
  20682442.5084  -24254074.15248 -18843109.23747  20682434.7074
  22574114.1954  -14752586.58947 -11355235.56645  22574109.2234
  25135956.5164      95857.97046   1157478.20243  25135952.8674
  24088423.8444   -4574683.38646  -3505088.10844  24088421.3094
 15  3 17  2 13 30.0000000  0 11G28G27G14G18G19G04G32G22G11G16G01
  25008554.3284   -1811881.47446  -1368377.73743  25008547.5984
  20908033.4454  -22133424.05648 -17193140.11947  20908030.4454
  23540906.2274  -12242277.97446  -8642903.14144  23540901.5204
  22656153.9844  -15485472.34147 -11639566.50145  22656148.1644
  20471050.3674  -25421608.37748 -19757553.48448  20471043.3634
  21536392.6644  -19258285.82148 -13249643.74646  21536388.1524
  23101880.0704   -8980541.68347  -6941181.60844  23101876.2624
  20686543.9614  -24232518.38448 -18826312.52847  20686536.5944
  22555847.1174  -14848580.38947 -11430035.91445  22555841.7234
  25157376.4844     208421.58546   1245190.27343  25157371.6024
  24069674.4534   -4673213.29946  -3581864.62044  24069672.1134
 15  3 17  2 14  0.0000000  0 11G28G27G14G18G19G04G32G22G11G16G01
  24994700.7194   -1884679.39546  -1425103.32643  24994694.3914
  20919340.3984  -22074005.93149 -17146840.29347  20919337.2304
  23523978.5474  -12331230.56346  -8712216.82044  23523974.6294
  22670377.7034  -15410724.18147 -11581321.18445  22670372.4184
  20471088.4844  -25421407.00848 -19757396.58448  20471081.7544
  21521653.6954  -19335737.46948 -13309995.67246  21521649.4614
  23081088.6174   -9089799.43147  -7026317.50244  23081085.1054
  20690737.0314  -24210486.27948 -18809144.65847  20690729.1564
  22537622.9454  -14944351.50847 -11504662.74345  22537617.2034
  25178790.8914     320963.44645   1332885.20343  25178787.7194
  24050942.1334   -4771647.55746  -3658566.60744  24050941.3444
 15  3 17  2 14 30.0000000  0 11G28G27G14G18G19G04G32G22G11G16G01
  24980914.7194   -1957124.89746  -1481554.31443  24980908.4064
  20930736.8054  -22014115.38048 -17100172.34247  20930734.2304
  23507099.6414  -12419929.25546  -8781332.61044  23507095.6334
  22684651.8134  -15335716.77548 -11522873.88145  22684645.9024
  20471231.3674  -25420657.73848 -19756812.74848  20471224.3714
  21506971.2034  -19412896.98448 -13370119.94446  21506966.7464
  23060342.9064   -9198817.81747  -7111266.87245  23060339.3984
  20695019.9454  -24187979.11848 -18791606.59347  20695012.1174
  22519441.1414  -15039897.93647 -11579114.48645  22519435.2424
  25200204.3284     433480.93246   1420561.03843  25200199.7304
  24032229.8834   -4869985.07346  -3735193.21243  24032227.9224
 15  3 17  2 15  0.0000000  0 11G28G27G14G18G19G04G32G22G11G16G01
  24967195.5084   -2029217.22346  -1537730.14843  24967189.6024
  20942223.2974  -21953754.90648 -17053138.22747  20942220.4884
  23490270.4534  -12508372.16947  -8850249.13944  23490265.1454
  22698973.8754  -15260453.25247 -11464226.96445  22698967.7234
  20471477.8594  -25419361.80348 -19755802.93148  20471471.0824
  21492343.6414  -19489764.05948 -13430016.36446  21492338.9694
  23039643.4454   -9307595.85147  -7196028.96044  23039639.5204
  20699392.6564  -24164999.30948 -18773700.25047  20699384.8444
  22501302.1804  -15135219.17247 -11653390.76345  22501296.2384
  25221609.6024     545970.00046   1508214.87543  25221605.3914
  24013534.5784   -4968226.23546  -3811744.72743  24013533.0234
 15  3 17  2 15 30.0000000  0 11G28G27G14G18G19G04G32G22G11G16G01
  24953545.2974   -2100951.02946  -1593626.59543  24953539.0664
  20953799.3284  -21892922.51348 -17005736.38147  20953796.2734
  23473488.9844  -12596553.28847  -8918961.69944  23473484.7194
  22713344.9304  -15184932.10647 -11405379.31945  22713339.1724
  20471829.0314  -25417515.29748 -19754364.10348  20471822.3094
  21477772.7034  -19566334.57848 -13489681.69046  21477768.2034
  23018989.8054   -9416128.19847  -7280599.56644  23018986.3834
  20703856.1884  -24141544.26048 -18755423.59347  20703848.4574
  22483206.5084  -15230310.22647 -11727487.66945  22483200.7034
  25243008.273
  23994858.8134   -5066366.77646  -3888217.82643  23994857.2854
 15  3 17  2 16  0.0000000  0 11G28G27G14G18G19G04G32G22G11G16G01
  24939961.8834   -2172328.77846  -1649245.59643  24939956.3484
  20965464.1414  -21831624.05448 -16957971.37347  20965461.1604
  23456758.2584  -12684474.55747  -8987471.73844  23456754.0784
  22727763.8284  -15109159.76147 -11346335.95345  22727758.1764
  20472284.5864  -25415122.16848 -19752499.33648  20472277.7344
  21463257.7504  -19642611.64048 -13549118.35946  21463253.2034
  22998383.5234   -9524417.29847  -7364980.65845  22998379.7384
  20708408.8204  -24117619.84048 -18736781.18447  20708400.6764
  22465154.3134  -15325173.68547 -11801407.24745  22465148.9454
  25264404.4304  -93754343.62246 -71963374.97453  25264399.0984
  23976202.8984   -5164410.41046  -3964615.39744  23976200.3164
 15  3 17  2 16 30.0000000  0 11G28G27G14G18G19G04G32G22G11G16G01
  24926448.3914   -2243345.13946  -1704582.99543  24926442.5594
  20977217.6564  -21769858.25548 -16909842.19647  20977214.8554
  23440078.0164  -12772130.34847  -9055774.90344  23440074.6134
  22742230.6564  -15033135.39647 -11287096.20045  22742225.2274
  20472844.8054  -25412179.82948 -19750206.61748  20472837.6564
  21448799.3754  -19718591.54548 -13608323.46246  21448794.7624
  22977824.0084   -9632458.40847  -7449168.50745  22977820.3714
  20713050.8914  -24093224.92048 -18717772.14747  20713043.2384
  22447147.1414  -15419805.30247 -11875146.12545  22447141.7624
  25285791.9144  -93641953.08046 -71875797.98743  25285787.1374
  23957564.8054   -5262353.53046  -4040934.68244  23957562.5004
 15  3 17  2 17  0.0000000  0 11G28G27G14G18G19G04G32G22G11G16G01
  24913003.4454   -2313998.18246  -1759637.30043  24912997.4224
  20989060.1254  -21707626.06748 -16861349.60647  20989057.0354
  23423448.6804  -12859517.26447  -9123868.57444  23423444.7704
  22756745.5944  -14956860.50847 -11227661.23845  22756739.3444
  20473508.9384  -25408687.37248 -19747485.23148  20473502.3984
  21434397.5784  -19794272.61148 -13667295.73146  21434392.9304
  22957311.3834   -9740249.26547  -7533161.33145  22957308.1914
  20717782.7664  -24068360.27648 -18698397.09447  20717774.6764
  22429183.3054  -15514202.95447 -11948702.72445  22429177.9654
  25307171.1174  -93529599.95145 -71788250.04942  25307167.3794
  23938945.7274   -5360195.03646  -4117174.74343  23938943.7504
 15  3 17  2 17 30.0000000  0 11G28G27G14G18G19G04G32G22G11G16G01
  24899627.4224   -2384286.61746  -1814407.43643  24899621.9964
  21000990.8204  -21644929.45348 -16812495.11547  21000987.8984
  23406871.2814  -12946633.62047  -9191751.43844  23406866.9654
  22771307.4694  -14880337.65347 -11168033.02545  22771301.3484
  20474278.6254  -25404645.19948 -19744335.50448  20474271.4534
  21420053.2734  -19869654.26948 -13726034.68346  21420048.3984
  22936847.9924   -9847788.20547  -7616957.86445  22936844.6334
  20722603.1334  -24043027.46048 -18678657.22847  20722595.5784
  22411265.3284  -15608365.46847 -12022076.09145  22411259.5664
  25328544.5164  -93417287.87746 -71700734.19743  25328539.0664
  23920346.5784   -5457934.41446  -4193335.25444  23920344.1804
 15  3 17  2 18  0.0000000  0 11G28G27G14G18G19G04G32G22G11G16G01
  24886322.4694   -2454207.85546  -1868891.47143  24886316.4884
  21013009.7114  -21581769.48248 -16763279.58147  21013007.1764
  23390345.9224  -13033476.00847  -9259420.79944  23390341.4304
  22785916.3524  -14803568.17047 -11108212.66045  22785910.4414
  20475152.1954  -25400052.48248 -19740756.76848  20475145.6414
  21405765.4694  -19944734.88948 -13784539.05746  21405761.0664
  22916431.5784   -9955072.89747  -7700556.30944  22916428.1174
  20727512.8834  -24017227.37948 -18658553.26647  20727504.9774
  22393391.9774  -15702291.23647 -12095264.97045  22393386.0354
  25349907.6804  -93305019.32546 -71613252.20743  25349903.4454
  23901767.1254   -5555570.49146  -4269415.28844  23901765.4844
 15  3 17  2 18 30.0000000  0 11G28G27G14G18G19G04G32G22G11G16G01
  24873087.0394   -2523759.70046  -1923087.69143  24873081.3484
  21025116.8594  -21518147.63448 -16713704.13347  21025113.7114
  23373872.3754  -13120041.80847  -9326874.62244  23373868.3524
  22800571.5084  -14726554.12547 -11048201.72945  22800565.4534
  20476131.0704  -25394909.63248 -19736749.36548  20476124.1724
  21391535.5554  -20019513.56248 -13842808.13546  21391531.1994
  22896065.4224  -10062101.43747  -7783955.11745  22896061.6684
  20732511.1724  -23990961.68548 -18638086.49347  20732503.1644
  22375563.8444  -15795978.17047 -12168267.76445  22375557.8524
  25371262.5634  -93192796.36745 -71525805.86942  25371258.9694
  23883206.8984   -5653102.52546  -4345414.20144  23883205.3444
 15  3 17  2 19  0.0000000  0 11G28G27G14G18G19G04G32G22G11G16G01
  24859921.5554   -2592939.95446  -1976994.38543  24859916.8984
  21037311.1254  -21454064.91148 -16663769.55947  21037308.1024
  23357452.8444  -13206327.75747  -9394110.39644  23357448.6374
  22815273.2344  -14649297.26947 -10988001.58845  22815267.0864
  20477214.3834  -25389215.83948 -19732312.65748  20477207.7114
  21377363.4614  -20093988.49048 -13900840.53246  21377359.0274
  22875747.6724  -10168871.25247  -7867152.33745  22875743.9574
  20737597.3284  -23964231.11748 -18617257.48047  20737590.0314
  22357781.1484  -15889424.21847 -12241082.84445  22357776.0594
  25392609.6254  -93080622.02946 -71438397.29742  25392604.9734
  23864667.0234   -5750529.09946  -4421330.99443  23864665.8204
 15  3 17  2 19 30.0000000  0 11G28G27G14G18G19G04G32G22G11G16G01
  24846829.0474   -2661746.50546  -2030609.84643  24846823.0944
  21049593.2034  -21389522.83748 -16613477.05247  21049590.2114
  23341086.9304  -13292331.39946  -9461126.19744  23341082.0704
  22830020.4224  -14571799.26247 -10927613.53745  22830014.7344
  20478403.1174  -25382970.96348 -19727446.52048  20478395.9694
  21363249.4614  -20168158.64948 -13958635.45946  21363244.8634
  22855479.5394  -10275380.48647  -7950146.51045  22855476.0594
  20742773.4064  -23937036.77148 -18596067.07447  20742764.4694
  22340044.2194  -15982627.55647 -12313708.82745  22340038.3134
  25413945.5864  -92968499.00246 -71351028.63743  25413941.0634
  23846147.7274   -5847849.43546  -4497164.95744  23846146.3484
 15  3 17  2 20  0.0000000  0 11G28G27G14G18G19G04G32G22G11G16G01
  24833807.7194   -2730177.92247  -2083933.02643  24833800.6334
  21061962.2584  -21324523.38648 -16562828.14747  21061959.3634
  23324775.3204  -13378050.08147  -9527919.94744  23324770.8164
  22844813.3984  -14494062.54747 -10867039.48545  22844807.4024
  20479696.2974  -25376175.17948 -19722151.11548  20479689.2544
  21349193.4144  -20242023.45048 -14016192.43746  21349189.1374
  22835261.3524  -10381627.64247  -8032936.45545  22835257.8674
  20748035.5704  -23909380.69648 -18574516.88347  20748027.3634
  22322355.4144  -16075587.14447 -12386144.84745  22322349.8404
  25435271.3594  -92856430.37546 -71263702.50243  25435266.9654
  23827647.9614   -5945063.18846  -4572915.86144  23827646.9884
 15  3 17  2 20 30.0000000  0 11G28G27G14G18G19G04G32G22G11G16G01
  24820856.3204   -2798231.55347  -2136961.76843  24820850.9064
  21074418.1254  -21259067.17448 -16511823.33247  21074415.2854
  23308518.4844  -13463480.50746  -9594489.07144  23308514.3954
  22859651.2504  -14416088.24647 -10806280.28545  22859645.3834
  20481094.1954  -25368827.69248 -19716425.80948  20481087.3794
  21335195.8674  -20315580.73548 -14073509.78646  21335191.3714
  22815093.5394  -10487609.80147  -8115519.91245  22815089.9574
  20753386.0234  -23881263.62048 -18552607.47347  20753377.2384
  22304713.0784  -16168300.42247 -12458388.94645  22304707.1604
  25456586.3284  -92744418.31246 -71176420.45942  25456582.2074
  23809170.5704   -6042168.56346  -4648582.33044  23809168.3484
 15  3 17  2 21  0.0000000  0 11G28G27G14G18G19G04G32G22G11G16G01
  24807978.7664   -2865905.33646  -2189694.57243  24807973.4964
  21086960.6334  -21193155.61348 -16460463.69147  21086957.8094
  23292317.0084  -13548619.74447  -9660831.31844  23292312.5004
  22874534.0164  -14337877.86847 -10745337.13945  22874528.6994
  20482597.3674  -25360928.17848 -19710270.35348  20482590.6684
  21321257.3834  -20388829.30448 -14130586.58546  21321252.8524
  22794976.6724  -10593324.92947  -8197895.29245  22794973.0664
  20758823.8134  -23852686.38748 -18530339.50047  20758815.7304
  22287117.8444  -16260765.66547 -12530439.77545  22287111.8674
  25477890.3204  -92632465.04046 -71089184.17542  25477886.2424
  23790712.8984   -6139164.61146  -4724163.66444  23790709.8054
 15  3 17  2 21 30.0000000  0 11G28G27G14G18G19G04G32G22G11G16G01
  24795173.5004   -2933196.94546  -2242129.60943  24795168.1884
  21099589.6094  -21126790.13548 -16408750.35047  21099586.9344
  23276170.8284  -13633465.09247  -9726944.51944  23276166.8364
  22889461.2974  -14259433.53247 -10684211.69245  22889455.7464
  20484205.8364  -25352476.32248 -19703684.50348  20484199.2114
  21307377.6414  -20461767.86448 -14187421.81646  21307372.7974
  22774911.3054  -10698770.93947  -8280060.97545  22774907.2584
  20764348.9694  -23823650.32348 -18507713.99047  20764341.3444
  22269569.1254  -16352980.86547 -12602295.77645  22269563.9344
  25499182.3444  -92520572.80045 -71001995.35942  25499178.4264
  23772275.8284   -6236050.41247  -4799659.04944  23772273.7384
 15  3 17  2 22  0.0000000  0 11G28G27G14G18G19G04G32G22G11G16G01
  24782441.9924   -3000104.68946  -2294265.46943  24782435.6254
  21112304.8754  -21059972.51148 -16356684.68847  21112301.8164
  23260082.0164  -13718014.18847  -9792826.92444  23260077.4264
  22904433.1174  -14180757.33447 -10622905.56545  22904426.9144
  20485919.3444  -25343472.60648 -19696668.62548  20485912.6174
  21293557.0394  -20534395.59948 -14244014.85046  21293552.4304
  22754896.7894  -10803946.02547  -8362015.52845  22754893.3284
  20769961.8834  -23794157.11848 -18484732.27247  20769954.1604
  22252068.9304  -16444944.60247 -12673955.79545  22252063.4694
  25520462.8984  -92408745.39646 -70914857.20942  25520458.7114
  23753860.1724   -6332825.24046  -4875067.98044  23753858.5004
 15  3 17  2 22 30.0000000  0 11G28G27G14G18G19G04G32G22G11G16G01
  24769782.4534   -3066626.69646  -2346100.77943  24769776.1374
  21125105.5704  -20992704.14748 -16304267.80347  21125102.8674
  23244050.0944  -13802264.02347  -9858476.12444  23244045.7384
  22919448.0474  -14101851.00447 -10561420.10445  22919442.6294
  20487737.8674  -25333916.69448 -19689222.46348  20487731.0084
  21279795.7894  -20606711.30348 -14300364.74846  21279791.0984
  22734934.4924  -10908848.17147  -8443757.42845  22734930.5784
  20775660.8674  -23764207.98948 -18461395.28547  20775652.9694
  22234616.8754  -16536654.82947 -12745418.28645  22234611.8524
  25541730.9384  -92296984.58945 -70827770.95143  25541726.8634
  23735465.6724   -6429488.10947  -4950389.61944  23735463.8094
 15  3 17  2 23  0.0000000  0 11G28G27G14G18G19G04G32G22G11G16G01
  24757198.3054   -3132760.22947  -2397633.40243  24757191.3634
  21137991.5164  -20924985.93848 -16251500.38247  21137988.6684
  23228075.0634  -13886211.43847  -9923889.66544  23228070.7704
  22934507.1954  -14022715.57347 -10499756.15645  22934502.1764
  20489661.4614  -25323807.62548 -19681345.27248  20489654.6954
  21266094.0474  -20678713.07248 -14356470.00946  21266089.4104
  22715024.5704  -11013474.71347  -8525284.56445  22715020.9694
  20781446.3754  -23733803.85848 -18437703.74547  20781438.8634
  22217213.8054  -16628109.32647 -12816681.51645  22217208.9964
  25562986.0234  -92185293.09646 -70740738.63842  25562980.7704
  23717092.9144   -6526037.45747  -5025622.82244  23717089.8554
 15  3 17  2 23 30.0000000  0 11G28G27G14G18G19G04G32G22G11G16G01
  24744687.7814   -3198503.67346  -2448862.03143  24744681.8244
  21150963.1804  -20856819.73148 -16198383.87247  21150960.4924
  23212158.6094  -13969853.98347  -9989065.62945  23212153.9104
  22949609.1644  -13943353.48747 -10437915.58745  22949603.6914
  20491690.1954  -25313146.00448 -19673037.52048  20491683.5394
  21252452.4614  -20750400.02548 -14412329.95946  21252447.7814
  22695167.2114  -11117823.97447  -8606595.63745  22695164.0744
  20787318.4454  -23702946.13248 -18413658.76147  20787310.6134
  22199859.5864  -16719307.17547 -12887744.75045  22199854.0984
  25584225.5314  -92073673.30245 -70653762.14742  25584221.5044
  23698742.0004   -6622472.63446  -5100767.09444  23698740.0904
 15  3 17  2 24  0.0000000  0 10G28G27G14G18G19G04G32G22G11G01
  24732251.8594   -3263850.79146  -2499781.82943  24732246.7464
  21164020.9844  -20788202.85748 -16144916.19947  21164017.9924
  23196301.2894  -14053184.41947 -10053998.40644  23196296.2344
  22964755.2274  -13863762.49447 -10375896.63245  22964749.0314
  20493824.9454  -25301927.61148 -19664295.93148  20493818.0904
  21238871.9614  -20821766.53448 -14467940.20746  21238866.9774
  22675364.2274  -11221889.70547  -8687685.77445  22675361.0274
  20793277.0944  -23671632.07548 -18389258.20147  20793269.4774
  22182555.2664  -16810241.74047 -12958602.83745  22182549.5944
  23680413.2504   -6718788.55246  -5175818.39044  23680412.0594
 15  3 17  2 24 30.0000000  0 10G28G27G14G18G19G04G32G22G11G01
  24719891.0634   -3328807.16846  -2550397.15243  24719885.7344
  21177162.0784  -20719144.50148 -16091104.50947  21177159.0084
  23180502.2814  -14136207.91847 -10118692.02144  23180497.6764
  22979942.6174  -13783952.18547 -10313706.78045  22979936.7854
  20496064.3054  -25290159.80748 -19655126.22348  20496057.5084
  21225351.1804  -20892819.46548 -14523306.11346  21225346.3204
  22655614.6094  -11325677.61947  -8768559.42445  22655610.5704
  20799321.1334  -23639870.62648 -18364509.01447  20799313.5664
  22165300.2664  -16900918.79747 -13029260.27345  22165294.6454
  23662106.4144   -6814991.82147  -5250781.92144  23662105.0744
 15  3 17  2 25  0.0000000  0 10G28G27G14G18G19G04G32G22G11G01
  24707606.4844   -3393367.43147  -2600703.81344  24707600.4654
  21190387.8914  -20649642.52748 -16036947.14647  21190385.1094
  23164763.0394  -14218918.24147 -10183141.59945  23164759.0354
  22995171.3914  -13703920.25447 -10251344.25345  22995166.1374
  20498409.0164  -25277838.87848 -19645525.50648  20498402.3094
  21211890.7894  -20963553.42748 -14578423.48546  21211886.0744
  22635918.2194  -11429181.88547  -8849212.05245  22635914.6254
  20805451.0784  -23607659.64948 -18339409.54047  20805443.2664
  22148095.2114  -16991333.09147 -13099712.95345  22148089.0234
  23643821.5314   -6911077.86646  -5325654.15644  23643820.2624
 15  3 17  2 25 30.0000000  0 10G28G27G14G18G19G04G32G22G11G01
  24695396.7034   -3457529.08247  -2650699.90043  24695391.0394
  21203697.7274  -20579698.30948 -15982445.17647  21203695.1684
  23149084.2344  -14301312.31147 -10247344.72945  23149079.8554
  23010443.3914  -13623668.14847 -10188810.15445  23010437.9884
  20500858.8204  -25264964.80448 -19635493.77448  20500852.2854
  21198491.5864  -21033967.35548 -14633291.47446  21198486.8554
  22616276.5004  -11532400.54247  -8929642.13245  22616272.5514
  20811665.6024  -23575000.07348 -18313960.52747  20811658.1914
  22130939.6954  -17081482.69147 -13169959.37645  22130933.8554
  23625559.8204   -7007045.50146  -5400434.07644  23625557.7504
 15  3 17  2 26  0.0000000  0 10G28G27G14G18G19G04G32G22G11G01
  24683262.9454   -3521291.06546  -2700384.55344  24683258.0204
  21217091.5164  -20509313.92348 -15927600.22647  21217088.4454
  23133465.3834  -14383387.72947 -10311299.58745  23133461.4104
  23025755.8204  -13543198.88347 -10126106.81545  23025750.4574
  20503413.7814  -25251538.16148 -19625031.46248  20503406.8954
  21185153.3204  -21104060.50548 -14687909.52646  21185148.7584
  22596688.6174  -11635331.80547  -9009848.24645  22596685.0084
  20817965.6884  -23541893.76148 -18288163.39247  20817957.8754
  22113835.7114  -17171366.20547 -13239998.47345  22113829.6454
  23607321.3594   -7102894.28847  -5475121.38344  23607318.6684
 15  3 17  2 26 30.0000000  0 10G28G27G14G18G19G04G32G22G11G01
  24671206.2814   -3584650.40346  -2749755.42843  24671201.1564
  21230569.0084  -20438489.92248 -15872412.70947  21230566.2774
  23117908.5554  -14465140.94547 -10375003.34045  23117903.6334
  23041110.7504  -13462512.76047 -10063234.52745  23041105.0004
  20506074.3674  -25237557.63448 -19614137.55148  20506067.4384
  21171876.0704  -21173830.65748 -14742275.88246  21171871.8284
  22577157.1254  -11737972.76947  -9089828.17245  22577153.3244
  20824350.5554  -23508341.22248 -18262018.55747  20824342.5314
  22096782.6724  -17260980.84248 -13309828.05145  22096776.7234
  23589103.4304   -7198622.27246  -5549714.58144  23589101.6134
 15  3 17  2 27  0.0000000  0 10G28G27G14G18G19G04G32G22G11G01
  24659226.1414   -3647605.38846  -2798811.22343  24659220.9654
  21244129.7034  -20367228.27248 -15816884.17147  21244126.9774
  23102412.9384  -14546569.43647 -10438454.11545  23102408.4804
  23056505.3204  -13381612.48647 -10000195.36245  23056499.5124
  20508839.9614  -25223023.93048 -19602812.59648  20508833.0664
  21158661.1254  -21243276.83348 -14796389.79946  21158656.5744
  22557680.6174  -11840321.89047  -9169580.66545  22557677.3794
  20830819.7894  -23474344.17048 -18235527.33447  20830812.1334
  22079781.2194  -17350324.95347 -13379446.81145  22079775.3714
  23570910.1484   -7294228.77546  -5624213.10044  23570907.8914
 15  3 17  2 27 30.0000000  0 10G28G27G14G18G19G04G32G22G11G01
  24647323.5234   -3710154.13246  -2847550.49343  24647317.5944
  21257773.5944  -20295530.60248 -15761015.88047  21257770.6454
  23086979.6414  -14627670.66547 -10501649.83645  23086976.3984
  23071940.6094  -13300499.25447  -9936990.25245  23071934.8984
  20511710.9304  -25207936.90648 -19591056.48348  20511704.4264
  21145508.0004  -21312397.86248 -14850250.31546  21145503.2194
  22538260.1334  -11942377.13947  -9249104.19145  22538255.9694
  20837373.6724  -23439904.08048 -18208690.90347  20837366.2034
  22062831.1804  -17439396.97048 -13448853.56745  22062825.3954
  23552740.5784   -7389712.90646  -5698616.29544  23552737.7464
 15  3 17  2 28  0.0000000  0 10G28G27G14G18G19G04G32G22G11G01
  24635497.9614   -3772294.65046  -2895971.67243  24635491.9384
  21271499.5554  -20223398.45048 -15704809.03547  21271496.9264
  23071610.1414  -14708441.94947 -10564588.45945  23071605.6954
  23087415.6254  -13219175.28747  -9873620.93845  23087410.6644
  20514687.2034  -25192296.76148 -19578869.36348  20514680.7384
  21132416.8674  -21381192.45748 -14903856.49446  21132411.7194
  22518895.8754  -12044136.50347  -9328397.13745  22518892.1334
  20844011.3594  -23405022.36548 -18181510.34547  20844003.9024
  22045933.4144  -17528194.86347 -13518046.72545  22045927.6174
  23534593.9454   -7485073.45546  -5772923.16444  23534591.3444
 15  3 17  2 28 30.0000000  0 10G28G27G14G18G19G04G32G22G11G01
  24623752.6954   -3834024.64046  -2944072.94643  24623744.9454
  21285308.3754  -20150833.30148 -15648264.78047  21285305.3984
  23056302.4614  -14788880.27647 -10627267.64445  23056298.1604
  23102931.1024  -13137642.02647  -9810088.52545  23102925.7814
  20517768.6564  -25176103.09648 -19566250.92848  20517762.1414
  21119388.0634  -21449659.53248 -14957207.43546  21119383.3714
  22499588.2034  -12145597.86947  -9407457.88545  22499584.7544
  20850733.0554  -23369700.14348 -18153986.53147  20850725.2384
  22029087.9224  -17616716.75048 -13587024.80145  22029082.7624
  23516470.3984   -7580309.43146  -5847132.94344  23516468.7114
 15  3 17  2 29  0.0000000  0 10G28G27G14G18G19G04G32G22G11G01
  24612083.2734   -3895342.91346  -2991853.39143  24612077.0784
  21299199.1334  -20077836.90448 -15591384.48647  21299196.2424
  23041060.0084  -14868982.85447 -10689685.21545  23041054.8324
  23118485.7894  -13055901.32847  -9746394.49845  23118480.4574
  20520955.3134  -25159356.26948 -19553201.46248  20520948.9384
  21106421.4774  -21517797.79548 -15010302.17246  21106416.7194
  22480338.2034  -12246759.27647  -9486284.90545  22480334.2774
  20857538.3054  -23333939.06048 -18126120.75647  20857530.4384
  22012296.0784  -17704961.00948 -13655786.55246  22012290.3984
  23498372.1724   -7675419.89947  -5921245.00844  23498369.9144
 15  3 17  2 29 30.0000000  0 10G28G27G14G18G19G04G32G22G11G01
  24600493.3444   -3956246.86446  -3039310.94343  24600488.1454
  21313171.7504  -20004410.48148 -15534169.11847  21313168.8634
  23025880.5944  -14948747.02647 -10751839.07245  23025876.6134
  23134079.9304  -12973954.85347  -9682540.10445  23134074.1414
  20524247.5004  -25142056.30148 -19539720.96648  20524240.7304
  21093518.0784  -21585605.46648 -15063139.31646  21093513.3444
  22461145.1094  -12347618.41347  -9564876.40245  22461141.7034
  20864426.6334  -23297740.34149 -18097913.95847  20864418.7774
  21995556.6254  -17792925.25748 -13724330.11145  21995551.2304
  23480297.0634   -7770403.42546  -5995258.08544  23480295.8754
 15  3 17  2 30  0.0000000  0 10G28G27G14G18G19G04G32G22G11G01
  24588983.6804   -4016734.89147  -3086444.47044  24588976.8914
  21327225.8674  -19930556.02648 -15476620.21147  21327222.7624
  23010767.6414  -15028170.36147 -10813727.36145  23010762.8984
  23149712.7664  -12891804.26147  -9618526.66045  23149706.9184
  20527644.8204  -25124203.42948 -19525809.64548  20527638.0744
  21080677.6564  -21653081.85348 -15115718.31446  21080673.1484
  22442009.7974  -12448173.65047  -9643231.08045  22442005.8364
  20871398.0784  -23261105.25048 -18069367.12747  20871390.2814
  21978871.3524  -17880607.94147 -13792654.27446  21978865.8874
  23462246.6024   -7865259.35046  -6069171.75744  23462245.4064
 15  3 17  2 30 30.0000000  0 10G28G27G14G18G19G04G32G22G11G01
  24577552.1024   -4076805.50946  -3133252.72144  24577545.4844
  21341360.6254  -19856275.75248 -15418739.49347  21341357.9344
  22995719.1724  -15107250.72847 -10875348.39845  22995714.5944
  23165383.9774  -12809452.18647  -9554356.22545  23165378.2034
  20531147.3284  -25105798.35348 -19511468.03848  20531140.5164
  21067900.8284  -21720226.41048 -15168038.74746  21067896.2704
  22422932.8204  -12548423.56847  -9721347.84345  22422929.1054
  20878452.0004  -23224036.02348 -18040482.01447  20878444.1564
  21962240.0704  -17968007.82848 -13860758.07546  21962234.1254
  23444221.5944   -7959987.15847  -6142985.62544  23444218.8164
 15  3 17  2 31  0.0000000  0 10G28G27G14G18G19G04G32G22G11G01
  24566200.8054   -4136456.00646  -3179733.58943  24566194.7154
  21355576.9384  -19781570.04048 -15360527.27347  21355574.2154
  22980736.4534  -15185983.81747 -10936698.82845  22980732.4694
  23181093.0314  -12726899.21447  -9490029.25745  23181087.6334
  20534755.0704  -25086839.97248 -19496695.28648  20534747.9384
  21055187.3054  -21787036.36048 -15220098.42446  21055182.4734
  22403915.0474  -12648364.87147  -9799224.12745  22403911.0274
  20885588.4844  -23186532.74248 -18011258.68147  20885581.0474
  21945662.3984  -18055121.85148 -13928639.12546  21945656.7424
  23426219.3754   -8054584.63646  -6216697.90544  23426217.5124
 15  3 17  2 31 30.0000000  0 10G28G27G14G18G19G04G32G22G11G01
  24554929.9614   -4195684.43946  -3225885.61743  24554924.1214
  21369873.5394  -19706440.62848 -15301984.88547  21369870.8754
  22965820.6174  -15264367.46047 -10997776.95545  22965816.5354
  23196840.3054  -12644146.95047  -9425546.97445  23196834.2074
  20538467.9614  -25067328.52648 -19481491.57047  20538460.8554
  21042537.8364  -21853510.41048 -15271896.38546  21042532.7464
  22384955.3134  -12747995.61047  -9876858.39945  22384951.7034
  20892807.5084  -23148596.89148 -17981698.28147  20892799.6804
  21929139.9064  -18141947.95648 -13996295.82646  21929134.4774
  23408242.3524   -8149050.74247  -6290307.79444  23408241.4344
 15  3 17  2 32  0.0000000  0 10G28G27G14G18G19G04G32G22G11G01
  24543740.1094   -4254489.21146  -3271707.45243  24543733.8834
  21384250.1644  -19630889.64748 -15243114.01147  21384247.7304
  22950971.6804  -15342399.22047 -11058580.90445  22950967.0084
  23212624.8834  -12561197.61347  -9360911.13745  23212619.4574
  20542285.7034  -25047264.68748 -19465857.42047  20542279.0904
  21029952.0234  -21919648.04348 -15323432.18746  21029947.6254
  22366056.0314  -12847314.38647  -9954249.58945  22366052.2234
  20900108.5864  -23110230.55348 -17951802.43047  20900100.6644
  21912672.6644  -18228484.86648 -14063727.18446  21912667.4064
  23390291.8914   -8243384.91947  -6363814.90044  23390290.2624
 15  3 17  2 32 30.0000000  0 10G28G27G14G18G19G04G32G22G11G01
  24532630.3444   -4312868.91246  -3317198.13743  24532623.3714
  21398706.9694  -19554919.02248 -15183916.14847  21398704.2934
  22936190.0784  -15420076.71747 -11119108.80845  22936185.0664
  23228446.8984  -12478053.36847  -9296123.40644  23228441.2624
  20546209.1484  -25026648.82148 -19449793.12047  20546202.0864
  21017430.5314  -21985448.28848 -15374705.09347  21017425.8674
  22347216.0944  -12946319.56747 -10031396.45045  22347212.0314
  20907491.0554  -23071435.37848 -17921572.42247  20907483.4804
  21896260.5864  -18314730.99048 -14130931.96346  21896255.3594
  23372365.7974   -8337586.39446  -6437218.59444  23372363.3484
 15  3 17  2 33  0.0000000  0 10G28G27G14G18G19G04G32G22G11G01
  24521602.9064   -4370821.39047  -3362355.91844  24521596.6994
  21413243.2424  -19478530.06848 -15124392.30347  21413241.1524
  22921476.1254  -15497396.99047 -11179358.33145  22921472.2504
  23244305.9844  -12394715.47747  -9231184.78245  23244300.2974
  20550237.2664  -25005480.58448 -19433298.39047  20550230.2854
  21004973.7584  -22050909.34148 -15425713.69547  21004969.0394
  22328435.5314  -13045008.69247 -10108297.02245  22328432.1454
  20914954.8054  -23032212.25349 -17891008.94747  20914947.1094
  21879904.1254  -18400684.10448 -14197908.41446  21879898.7194
  23354464.9924   -8431653.64447  -6510517.72244  23354463.2074
 15  3 17  2 33 30.0000000  0 10G28G27G14G18G19G04G32G22G11G01
  24510656.2814   -4428344.78346  -3407179.32843  24510650.8634
  21427859.1954  -19401724.43648 -15064543.78247  21427856.6294
  22906831.2274  -15574357.27347 -11239327.35045  22906826.9184
  23260200.9064  -12311185.39447  -9166096.41945  23260195.5634
  20554370.1724  -24983760.26448 -19416373.47347  20554363.4264
  20992581.5704  -22116030.00048 -15476457.06447  20992577.0354
  22309715.8834  -13143379.74347 -10184949.70845  22309712.4414
  20922499.8834  -22992562.84848 -17860113.30547  20922492.1174
  21863603.6564  -18486342.32048 -14264655.04946  21863598.4104
  23336590.8364   -8525585.63247  -6583711.42045  23336588.9184
 15  3 17  2 34  0.0000000  0 10G28G27G14G18G19G04G32G22G11G01
  24499792.0864   -4485436.70346  -3451666.52244  24499786.1134
  21442553.6174  -19324503.36948 -15004371.54147  21442551.2344
  22892255.4224  -15650954.52247 -11299013.48645  22892250.4104
  23276132.3444  -12227464.81247  -9100859.61244  23276127.1334
  20558608.6484  -24961487.93148 -19399018.41547  20558601.5824
  20980254.6174  -22180808.64648 -15526933.90747  20980250.2814
  22291057.8524  -13241430.26647 -10261352.65945  22291053.9614
  20930125.6254  -22952488.00548 -17828886.14247  20930118.1914
  21847360.0944  -18571703.05048 -14331169.87846  21847354.9224
  23318741.7814   -8619380.75046  -6656798.48644  23318739.9534
 15  3 17  2 34 30.0000000  0 10G28G27G14G18G19G04G32G22G11G01
  24489010.1564   -4542093.15946  -3495814.43143  24489004.6884
  21457327.5164  -19246866.62348 -14943875.39947  21457325.0274
  22877749.0634  -15727183.96847 -11358413.03545  22877744.3554
  23292100.0554  -12143553.15947  -9035473.93344  23292094.3204
  20562952.3284  -24938661.71848 -19381231.76448  20562945.4654
  20967993.3204  -22245241.99948 -15577141.70847  20967988.9104
  22272461.6254  -13339156.40247 -10337502.82745  22272457.3404
  20937832.5164  -22911987.43648 -17797327.26447  20937825.2274
  21831174.2734  -18656762.38248 -14397449.87446  21831168.6524
  23300920.1174   -8713035.96446  -6729776.50844  23300917.6604
 15  3 17  2 35  0.0000000  0 10G28G27G14G18G19G04G32G22G11G01
  24478312.7194   -4598309.91446  -3539619.70943  24478306.7304
  21472180.4924  -19168813.11448 -14883054.50747  21472178.2274
  22863314.3284  -15803040.26747 -11417521.79945  22863310.2934
  23308104.3444  -12059449.37547  -8969938.51244  23308098.6484
  20567401.9844  -24915279.09348 -19363011.54847  20567394.7624
  20955798.8134  -22309326.05348 -15627077.32547  20955794.1604
  22253927.0004  -13436553.50847 -10413396.64545  22253923.1724
  20945621.1884  -22871059.62448 -17765435.46947  20945613.5784
  21815046.3284  -18741515.87948 -14463491.56646  21815040.6094
  23283125.0314   -8806547.52346  -6802642.58445  23283122.9344
 15  3 17  2 35 30.0000000  0 10G28G27G14G18G19G04G32G22G11G01
  24467696.8984   -4654097.64846  -3583090.64743  24467691.1484
  21487110.0084  -19090357.36448 -14821920.17747  21487107.7344
  22848947.9924  -15878533.54047 -11476347.69345  22848944.0204
  23324142.8914  -11975168.13447  -8904264.80544  23324137.0354
  20571955.0004  -24891352.92548 -19344367.80247  20571947.8164
  20943668.1414  -22373072.22648 -15676749.66147  20943663.9184
  22235453.6414  -13533632.21347 -10489042.33745  22235449.9024
  20953488.2424  -22829718.85648 -17733221.88247  20953480.7894
  21798973.8674  -18825974.20248 -14529303.23046  21798968.6644
  23265354.4614   -8899926.96946  -6875405.73344  23265352.5044
 15  3 17  2 36  0.0000000  0 10G28G27G14G18G19G04G32G22G11G01
  24457164.7734   -4709447.45147  -3626220.41044  24457158.7734
  21502117.5394  -19011493.70348 -14760467.98947  21502114.7304
  22834653.3134  -15953653.61747 -11534882.80545  22834648.8554
  23340216.2664  -11890703.40647  -8838448.15244  23340210.5664
  20576612.5704  -24866876.35048 -19325295.15147  20576605.9924
  20931603.5394  -22436471.96848 -15726152.06447  20931598.7034
  22217042.5314  -13630383.30847 -10564432.74845  22217038.3714
  20961434.7344  -22787959.25548 -17700681.93947  20961426.6644
  21782960.3594  -18910128.07448 -14594877.66446  21782954.3834
  23247613.7814   -8993165.93247  -6948059.46345  23247610.7854
 15  3 17  2 36 30.0000000  0 10G28G27G14G18G19G04G32G22G11G01
  24446715.6094   -4764357.89647  -3669007.75844  24446709.2544
  21517202.2344  -18932224.19648 -14698699.56647  21517199.4534
  22820430.2034  -16028398.39747 -11593125.48045  22820425.1804
  23356323.6564  -11806057.44347  -8772490.29044  23356318.1214
  20581375.0704  -24841850.17548 -19305794.24647  20581368.0704
  20919605.0634  -22499524.34348 -15775283.76747  20919600.6524
  22198694.0084  -13726805.14147 -10639566.61645  22198690.3834
  20969460.8364  -22745782.54248 -17667816.96147  20969453.0164
  21767004.5944  -18993976.03648 -14660213.72646  21766998.6334
  23229896.7504   -9086263.55847  -7020602.98945  23229895.1524
 15  3 17  2 37  0.0000000  0 10G28G27G14G18G19G04G32G22G11G01
  24436349.6724   -4818829.11446  -3711452.87043  24436343.4694
  21532363.0784  -18852552.64348 -14636617.86047  21532360.1644
  22806278.1024  -16102767.15847 -11651075.13845  22806273.3594
  23372464.9694  -11721233.81947  -8706393.95844  23372459.2344
  20586241.4614  -24816276.24448 -19285866.51247  20586234.8834
  20907672.4614  -22562230.11148 -15824145.38147  20907667.2934
  22180407.9304  -13822897.85547 -10714444.02045  22180404.0594
  20977565.2974  -22703192.30848 -17634629.76547  20977557.8984
  21751106.4534  -19077517.90548 -14725311.28446  21751101.1644
  23212207.4844   -9179220.75547  -7093037.15145  23212205.5514
 15  3 17  2 37 30.0000000  0 10G28G27G14G18G19G04G32G22G11G01
  24426069.0864   -4872855.14647  -3753551.08843  24426063.2194
  21547600.9534  -18772476.46448 -14574220.85747  21547598.4614
  22792198.7734  -16176753.10047 -11708726.48445  22792194.4454
  23388640.1644  -11636229.76946  -8640157.04444  23388635.0554
  20591212.5004  -24790150.99748 -19265509.19447  20591206.0354
  20895807.0084  -22624583.56748 -15872732.48547  20895802.0474
  22162186.1484  -13918655.17647 -10789060.06645  22162182.0984
  20985749.0164  -22660185.51848 -17601117.98047  20985741.3754
  21735269.0234  -19160748.05448 -14790165.95546  21735263.0274
  23194546.0634   -9272032.09847  -7165357.63645  23194544.9494
 15  3 17  2 38  0.0000000  0 10G28G27G14G18G19G04G32G22G11G01
  24415872.5164   -4926434.46146  -3795301.21443  24415866.2154
  21562915.6484  -18691998.04648 -14511510.41947  21562912.7504
  22778192.6484  -16250354.20247 -11766077.97245  22778188.4454
  23404850.5234  -11551048.00046  -8573781.64644  23404844.9534
  20596289.6174  -24763475.05548 -19244722.76047  20596282.7234
  20884008.9144  -22686584.06448 -15921044.53747  20884004.1724
  22144027.8914  -14014075.75647 -10863413.73245  22144024.2464
  20994011.9844  -22616764.37148 -17567283.31947  20994004.3364
  21719490.5474  -19243664.52648 -14854776.19046  21719484.3484
  23176912.3674   -9364697.10747  -7237564.07245  23176910.5354
 15  3 17  2 38 30.0000000  0 10G28G27G14G18G19G04G32G22G11G01
  24405761.7894   -4979568.81947  -3836704.63143  24405755.7704
  21578306.1334  -18611122.23348 -14448490.32747  21578303.0004
  22764260.6954  -16323570.97747 -11823129.98545  22764255.4104
  23421092.9774  -11465693.35447  -8507271.54244  23421087.6764
  20601469.8444  -24736252.15148 -19223510.13047  20601463.1294
  20872277.4614  -22748233.63448 -15969083.16047  20872272.9144
  22125934.1024  -14109160.81547 -10937505.94245  22125930.4384
  21002352.5634  -22572933.44248 -17533129.35547  21002344.9264
  21703771.1724  -19326268.40548 -14919142.84546  21703765.6334
  23159307.6334   -9457217.67647  -7309658.02045  23159304.8244
 15  3 17  2 39  0.0000000  0 10G28G27G14G18G19G04G32G22G11G01
  24395736.7034   -5032254.29947  -3877758.27944  24395730.1644
  21593771.5004  -18529848.83848 -14385160.42147  21593769.0824
  22750401.6564  -16396398.82447 -11879878.92345  22750396.9024
  23437368.8444  -11380164.87247  -8440625.99544  23437362.4804
  20606754.1954  -24708480.67548 -19201870.02847  20606747.1644
  20860613.2344  -22809529.02148 -16016845.77147  20860608.4414
  22107904.2664  -14203906.43847 -11011333.65645  22107900.5204
  21010771.4454  -22528692.35748 -17498655.78247  21010764.0204
  21688112.3284  -19408556.14548 -14983263.14746  21688106.7234
  23141728.2504   -9549590.69347  -7381636.92345  23141725.8134
 15  3 17  2 39 30.0000000  0 10G28G27G14G18G19G04G32G22G11G01
  24385793.9694   -5084500.66347  -3918469.74443  24385788.2854
  21609310.7424  -18448191.18748 -14321531.11147  21609307.9304
  22736615.3674  -16468846.66047 -11936331.76145  22736610.7034
  23453674.9774  -11294475.97947  -8373855.40244  23453668.6454
  20612141.2034  -24680172.72448 -19179811.90447  20612134.6724
  20849014.7114  -22870480.33848 -16064340.29847  20849009.9344
  22089937.7734  -14298322.19747 -11084904.31545  22089933.4414
  21019265.7034  -22484053.86048 -17463872.52647  21019258.0004
  21672511.8984  -19490537.03748 -15047144.36146  21672505.9454
  23124176.8834   -9641826.66247  -7453509.08845  23124173.7814
 15  3 17  2 40  0.0000000  0 10G28G27G14G18G19G04G32G22G11G01
  24375940.4224   -5136283.72047  -3958820.19143  24375933.3554
  21624926.8444  -18366128.02948 -14257585.80647  21624923.9964
  22722906.0944  -16540888.66647 -11992468.35945  22722901.6954
  23470014.6334  -11208605.50046  -8306943.35144  23470009.6094
  20617634.7664  -24651305.24848 -19157317.77547  20617627.8954
  20837486.2274  -22931063.21948 -16111547.72047  20837481.0314
  22072038.7664  -14392383.22047 -11158198.58245  22072034.5904
  21027839.9844  -22438996.73548 -17428763.08447  21027832.3324
  21656974.7344  -19572186.52448 -15110767.32146  21656969.1914
  23106656.1564   -9733901.25746  -7525255.46045  23106654.3874
 15  3 17  2 40 30.0000000  0 10G28G27G14G18G19G04G32G22G11G01
  24366171.8914   -5187613.47647  -3998817.41144  24366166.3874
  21640617.4454  -18283673.41648 -14193335.47547  21640614.8404
  22709272.7114  -16612534.76447 -12048296.46245  22709267.2854
  23486387.8134  -11122567.08147  -8239900.45444  23486382.4384
  20623232.0084  -24621891.15148 -19134397.71547  20623225.1724
  20826025.6254  -22991288.90348 -16158476.80847  20826020.4964
  22054205.0234  -14486099.79247 -11231224.43245  22054200.8244
  21036491.1884  -22393534.69848 -17393338.12047  21036483.5274
  21641498.6414  -19653514.51348 -15174139.77646  21641492.9734
  23089162.9614   -9825825.63046  -7596884.81445  23089161.2974
 15  3 17  2 41  0.0000000  0 10G28G27G14G18G19G04G32G22G11G01
  24356491.2584   -5238487.65547  -4038459.61244  24356485.8634
  21656382.3444  -18200828.52048 -14128781.02947  21656379.8364
  22695714.4144  -16683781.96847 -12103813.74645  22695710.0274
  23502792.4774  -11036361.65047  -8172727.39744  23502786.2544
  20628933.2584  -24591930.16948 -19111051.50847  20628926.5594
  20814633.2424  -23051155.33848 -16205125.97147  20814628.3134
  22036437.2734  -14579469.39147 -11303979.90445  22036433.0944
  21045218.9694  -22347668.43248 -17357598.18247  21045211.2384
  21626084.2424  -19734518.21848 -15237259.52846  21626078.2504
  23071699.5864   -9917597.99846  -7668395.71845  23071696.5044
 15  3 17  2 41 30.0000000  0 10G28G27G14G18G19G04G32G22G11G01
  24346896.9534   -5288904.80046  -4077745.68044  24346891.2774
  21672221.0084  -18117595.15548 -14063923.88947  21672218.3134
  22682233.0004  -16754627.34247 -12159017.90045  22682228.6884
  23519227.7664  -10949991.03447  -8105425.62244  23519222.1024
  20634738.3984  -24561423.02048 -19087279.71847  20634731.2774
  20803309.6024  -23110661.39948 -16251494.30847  20803305.1914
  22018735.7034  -14672490.18747 -11376463.60945  22018731.8164
  21054023.7114  -22301399.83548 -17321544.73047  21054015.8164
  21610731.7114  -19815196.18448 -15300125.47746  21610725.7304
  23054264.5164  -10009217.19447  -7739787.26445  23054262.4024
 15  3 17  2 42  0.0000000  0 10G28G27G14G18G19G04G32G22G11G01
  24337390.2894   -5338863.36647  -4116674.42443  24337384.4844
  21688133.3674  -18033975.50248 -13998765.73147  21688130.7504
  22668828.7194  -16825068.65647 -12213907.21345  22668824.1414
  23535694.8284  -10863457.18447  -8037996.66144  23535688.9414
  20640647.7974  -24530370.50648 -19063082.97347  20640641.0394
  20792054.5234  -23169806.05948 -16297581.05447  20792049.6454
  22001101.0944  -14765160.63447 -11448674.31645  22001097.0554
  21062904.8134  -22254730.33448 -17285178.89147  21062897.2544
  21595441.4614  -19895546.45848 -15362736.07846  21595435.7274
  23036859.0784  -10100682.40146  -7811058.81845  23036857.0944
 15  3 17  2 42 30.0000000  0 10G28G27G14G18G19G04G32G22G11G01
  24327971.1644   -5388362.39347  -4155245.10743  24327964.2034
  21704118.7894  -17949971.94748 -13933308.42747  21704115.9304
  22655501.0554  -16895104.18247 -12268480.32245  22655496.5514
  23552192.0314  -10776762.25847  -7970442.18644  23552186.7544
  20646660.3984  -24498773.38748 -19038461.84847  20646653.7344
  20780868.3054  -23228588.69948 -16343385.70747  20780863.9344
  21983533.4384  -14857479.40447 -11520610.98946  21983529.3834
  21071861.5234  -22207662.28548 -17248502.48947  21071853.9924
  21580213.8674  -19975567.78348 -15425090.34846  21580208.1954
  23019483.2664  -10191992.99446  -7882209.90245  23019481.1644
 15  3 17  2 43  0.0000000  0 10G28G27G14G18G19G04G32G22G11G01
  24318639.4064   -5437399.61347  -4193455.93944  24318632.9884
  21720176.8134  -17865585.78448 -13867552.99947  21720174.2034
  22642251.7274  -16964730.74147 -12322734.75845  22642247.0704
  23568720.6174  -10689907.34347  -7902763.05144  23568714.8754
  20652776.7274  -24466631.87548 -19013416.53447  20652770.0704
  20769752.0634  -23287007.31348 -16388906.69847  20769747.2074
  21966034.2504  -14949444.02647 -11592271.67946  21966029.6484
  21080893.8524  -22160196.57648 -17211516.22847  21080886.2504
  21565048.9614  -20055257.71748 -15487186.38846  21565043.1524
  23002137.9384  -10283147.20347  -7953239.13145  23002135.0664
 15  3 17  2 43 30.0000000  0 10G28G27G14G18G19G04G32G22G11G01
  24309396.3674   -5485973.36946  -4231305.58944  24309390.0784
  21736307.1484  -17780818.87948 -13801500.87947  21736304.7704
  22629080.2584  -17033945.80847 -12376668.54545  22629076.1054
  23585277.8914  -10602893.95547  -7834960.40444  23585271.8954
  20658997.0164  -24433946.61548 -18987947.51047  20658989.6764
  20758704.7894  -23345060.69748 -16434143.09447  20758700.2934
  21948600.5554  -15041052.68447 -11663654.99145  21948596.4774
  21090001.8284  -22112334.76748 -17174221.31647  21089994.0904
  21549948.1094  -20134613.95648 -15549022.41346  21549942.0784
  22984821.9304  -10374143.86547  -8024145.59745  22984818.9104
 15  3 17  2 44  0.0000000  0 10G28G27G14G18G19G04G32G22G11G01
  24300240.6644   -5534081.97046  -4268792.76944  24300235.1294
  21752509.8054  -17695672.66248 -13735153.19747  21752507.3714
  22615988.2504  -17102746.53647 -12430279.47645  22615983.6134
  23601866.4454  -10515723.42947  -7767035.31344  23601861.0554
  20665319.8364  -24400717.52048 -18962054.72447  20665313.2934
  20747727.5944  -23402747.20648 -16479093.62347  20747722.8404
  21931236.0784  -15132303.14347 -11734759.19946  21931232.0634
  21099184.8834  -22064078.05948 -17136618.69647  21099176.8794
  21534911.1644  -20213634.41848 -15610596.79246  21534905.1174
  22967534.9614  -10464981.46247  -8094928.10545  22967533.1764
 15  3 17  2 44 30.0000000  0 10G28G27G14G18G19G04G32G22G11G01
  24291174.5164   -5581724.13046  -4305916.48244  24291168.9224
  21768784.5554  -17610149.61748 -13668511.88647  21768782.4024
  22602974.6334  -17171131.01547 -12483566.05345  22602970.6174
  23618483.8834  -10428397.75747  -7698989.35844  23618479.6564
  20671746.4064  -24366945.73148 -18935739.04947  20671739.8364
  20736819.6724  -23460066.49648 -16523757.99647  20736815.3954
  21913940.3674  -15223194.13747 -11805583.31546  21913936.0514
  21108442.3984  -22015428.36048 -17098709.84247  21108434.6054
  21519938.1254  -20292317.69348 -15671908.42646  21519932.3634
  22950279.4614  -10555659.30147  -8165586.09645  22950277.9024
 15  3 17  2 45  0.0000000  0 10G28G27G14G18G19G04G32G22G11G01
  24282197.8524   -5628898.88946  -4342675.98844  24282192.5044
  21785130.5234  -17524252.10748 -13601578.78547  21785127.8674
  22590041.2424  -17239097.41547 -12536526.86345  22590036.9964
  23635129.2664  -10340918.97046  -7630824.10944  23635124.6054
  20678276.1724  -24332632.42848 -18909001.42447  20678269.3714
  20725982.4454  -23517017.27948 -16568135.22047  20725977.6844
  21896712.6884  -15313724.35047 -11876126.30146  21896708.8054
  21117774.4844  -21966387.86048 -17060496.46147  21117766.9414
  21505029.5474  -20370662.13948 -15732956.03546  21505024.0044
  22933054.9924  -10646176.70247  -8236119.12545  22933052.1994
 15  3 17  2 45 30.0000000  0 10G28G27G14G18G19G04G32G22G11G01
  24273310.8134   -5675604.49947  -4379069.93444  24273304.6764
  21801547.1564  -17437981.86248 -13534355.23147  21801544.6454
  22577187.9924  -17306642.60847 -12589159.44645  22577183.6884
  23651806.9614  -10253288.58046  -7562540.72544  23651799.9184
  20684908.6954  -24297777.80848 -18881841.99147  20684902.1644
  20715215.5234  -23573598.55348 -16612224.51347  20715211.1294
  21879554.3444  -15403891.72747 -11946386.57146  21879550.5944
  21127180.9224  -21916957.85248 -17021979.58247  21127172.5594
  21490186.2274  -20448665.78448 -15793738.08946  21490180.1884
  22915861.0474  -10736532.38147  -8306526.12445  22915859.0274
 15  3 17  2 46  0.0000000  0 10G28G27G14G18G19G04G32G22G11G01
  24264512.6094   -5721838.72547  -4415096.58844  24264506.6644
  21818034.6484  -17351340.02148 -13466842.12947  21818032.3874
  22564414.6804  -17373763.81247 -12641461.67445  22564410.1524
  23668510.9774  -10165507.36346  -7494139.76544  23668504.1334
  20691644.3054  -24262382.01248 -18854260.86747  20691637.6994
  20704519.1484  -23629808.13048 -16656024.17747  20704514.1524
  21862465.5084  -15493693.77747 -12016362.16546  21862461.4694
  21136661.0394  -21867139.25648 -16983159.89947  21136653.5274
  21475407.7814  -20526325.91948 -15854252.45846  21475402.2854
  22898697.5164  -10826724.31546  -8376805.51745  22898695.0594
 15  3 17  2 46 30.0000000  0 10G28G27G14G18G19G04G32G22G11G01
  24255803.9384   -5767600.89646  -4450755.40444  24255798.6844
  21834592.6024  -17264329.53548 -13399041.76647  21834590.3094
  22551722.9694  -17440459.64747 -12693432.42345  22551718.6724
  23685242.1024  -10077577.74046  -7425623.21644  23685237.8324
  20698482.6094  -24226446.66548 -18826259.31247  20698475.8014
  20693893.6644  -23685645.78848 -16699534.02647  20693888.4144
  21845446.3984  -15583129.67347 -12086052.45246  21845442.6884
  21146214.3984  -21816934.58548 -16944039.37747  21146206.5514
  21460695.2734  -20603641.51748 -15914498.36846  21460689.9494
  22881566.1954  -10916752.38447  -8446957.27745  22881563.8364
 15  3 17  2 47  0.0000000  0 10G28G27G14G18G19G04G32G22G11G01
  24247185.9534   -5812888.89646  -4486044.74943  24247180.2154
  21851219.2424  -17176951.52648 -13330955.02447  21851216.9924
  22539112.7894  -17506726.74547 -12745069.09645  22539108.3164
  23702002.3834   -9989500.76946  -7356991.82044  23701997.4144
  20705423.6174  -24189971.72648 -18797837.29547  20705416.7194
  20683339.2034  -23741109.57948 -16742752.53747  20683334.4304
  21828497.9454  -15672196.74647 -12155455.32746  21828493.4534
  21155841.7194  -21766344.57448 -16904618.58747  21155833.8914
  21446048.1414  -20680609.84248 -15974473.68246  21446042.9414
  22864465.6174  -11006614.55347  -8516979.73445  22864463.5124
 15  3 17  2 47 30.0000000  0 11G28G24G27G14G18G19G04G32G22G11G01
  24238657.1724   -5857706.50646  -4520967.59443  24238650.7504
  25287972.797      671054.36914
  21867915.7894  -17089213.08048 -13262587.42346  21867913.4144
  22526584.1174  -17572567.93647 -12796373.86945  22526579.6134
  23718790.6254   -9901283.45446  -7288251.05644  23718784.5274
  20712466.1484  -24152963.13848 -18768999.45147  20712459.2114
  20672855.0864  -23796203.30448 -16785682.70647  20672850.2384
  21811618.5234  -15760898.53047 -12224573.56446  21811613.7504
  21165540.4144  -21715376.20148 -16864902.97047  21165532.9414
  21431467.4774  -20757233.94848 -16034180.76446  21431461.6254
  22847396.4844  -11096314.78147  -8586875.99045  22847393.6684
 15  3 17  2 48  0.0000000  0 11G28G24G27G14G18G19G04G32G22G11G01
  24230220.8834   -5902042.55547  -4555515.15944  24230214.3714
  25280090.117     -945799.08414
  21884682.0394  -17001106.58048 -13193933.02346  21884679.5004
  22514138.1564  -17637971.13147 -12847337.37245  22514133.0984
  23735606.2584   -9812917.58646  -7219394.52944  23735599.6024
  20719612.1644  -24115411.92648 -18739738.77747  20719605.1484
  20662443.3524  -23850916.35748 -16828316.24347  20662438.6844
  21794810.7034  -15849223.57247 -12293398.24646  21794806.2704
  21175312.8834  -21664021.28848 -16824886.16747  21175305.5984
  21416953.8364  -20833502.73248 -16093610.97946  21416948.2974
  22830359.9924  -11185842.31047  -8656637.67545  22830357.2854
 15  3 17  2 48 30.0000000  0 11G28G24G27G14G18G19G04G32G22G11G01
  24221874.6804   -5945900.57147  -4589690.23444  24221869.2544
  25272294.977     -986760.030 4
  21901516.5314  -16912638.97848 -13124997.24847  21901514.9494
  22501774.6174  -17702938.97547 -12897961.64545  22501769.8054
  23752447.7194   -9724409.60746  -7150427.26444  23752442.2894
  20726859.8674  -24077323.75548 -18710059.69947  20726852.7894
  20652103.8054  -23905252.38048 -16870655.99247  20652098.8794
  21778073.9384  -15937175.20547 -12361931.95646  21778069.8364
  21185157.7734  -21612286.40048 -16784573.28047  21185149.9804
  21402507.4694  -20909418.81648 -16152766.35246  21402501.9964
  22813355.7274  -11275200.94547  -8726267.74045  22813353.2464
 15  3 17  2 49  0.0000000  0 11G28G24G27G14G18G19G04G32G22G11G01
  24213620.3284   -5989278.85446  -4623491.53344  24213614.4264
  25264590.969    -1027245.908 4
  21918420.0164  -16823812.02248 -13055781.46346  21918417.6644
  22489494.6174  -17767469.22047 -12948244.92045  22489489.5164
  23769317.0634   -9635760.73846  -7081350.23444  23769311.9264
  20734209.8524  -24038698.89948 -18679962.42047  20734203.1724
  20641836.0234  -23959209.94348 -16912700.85247  20641831.3714
  21761408.3594  -16024751.40647 -12430173.09746  21761404.5434
  21195074.8284  -21560172.82948 -16743965.30847  21195066.8754
  21388128.6804  -20984980.09048 -16211645.26146  21388122.6374
  22796383.2734  -11364389.26346  -8795765.10545  22796381.0984
 15  3 17  2 49 30.0000000  0 11G28G24G27G14G18G19G04G32G22G11G01
  24205457.1644   -6032176.05547  -4656917.91744  24205451.9734
  25256978.234    -1067255.079 5
  21935391.0704  -16734627.60148 -12986287.13046  21935388.4414
  22477299.4224  -17831559.12947 -12998185.07745  22477294.4414
  23786212.9224   -9546972.68446  -7012164.76044  23786208.0314
  20741661.8674  -23999538.40348 -18649447.75747  20741655.0394
  20631640.5944  -24012787.96748 -16954449.95647  20631635.6334
  21744814.8284  -16111950.30947 -12498120.24146  21744811.0204
  21205063.4844  -21507682.36448 -16703063.64347  21205055.6724
  21373818.1174  -21060184.40548 -16270246.02046  21373812.0904
  22779444.1564  -11453405.98947  -8865128.76845  22779441.3244
 15  3 17  2 50  0.0000000  0 11G28G24G27G14G18G19G04G32G22G11G01
  24197386.0234   -6074591.13646  -4689968.62344  24197380.2384
  25249455.008    -1106786.310 5
  21952429.6954  -16645088.33648 -12916516.29446  21952427.2704
  22465187.8754  -17895206.88947 -13047780.71645  22465182.6954
  23803135.1564   -9458047.54646  -6942872.46144  23803129.9574
  20749215.5474  -23959843.59148 -18618516.74547  20749208.8524
  20621517.4694  -24065985.62048 -16995902.65647  20621512.6134
  21728294.2584  -16198770.91947 -12565772.64046  21728289.3134
  21215123.2974  -21454817.23848 -16661870.03847  21215115.2304
  21359575.1564  -21135030.98648 -16328568.02246  21359569.0274
  22762537.3984  -11542250.51147  -8934358.23345  22762535.1684
 15  3 17  2 50 30.0000000  0 11G28G24G27G14G18G19G04G32G22G11G01
  24189406.2114   -6116522.39846  -4722642.31643  24189400.6604
  25242025.109    -1145836.945 5
  21969536.0474  -16555195.63848 -12846470.05746  21969533.4184
  22453160.5474  -17958409.87147 -13097029.75645  22453156.2274
  23820083.2424   -9368986.50246  -6873474.25044  23820077.8984
  20756870.6644  -23919614.79048 -18587169.63847  20756863.9454
  20611466.9844  -24118801.38348 -17037057.78747  20611462.0664
  21711844.4694  -16285210.96847 -12633128.48346  21711840.7384
  21225254.3204  -21401578.11448 -16620385.00147  21225246.6414
  21345400.6334  -21209516.83148 -16386608.92946  21345394.9734
  22745664.0394  -11630921.11147  -9003452.19145  22745661.7774
 15  3 17  2 51  0.0000000  0 11G28G24G27G14G18G19G04G32G22G11G01
  24181519.6804   -6157968.84747  -4754938.23343  24181513.6644
  25234685.617    -1184405.609 4
  21986708.9304  -16464952.03648 -12776150.39546  21986706.4024
  22441218.2814  -18021165.99847 -13145930.60945  22441213.7074
  23837056.3444   -9279791.59446  -6803971.74444  23837050.4694
  20764627.4844  -23878853.04648 -18555407.25147  20764620.5984
  20601489.1564  -24171234.17648 -17077914.50147  20601484.4304
  21695468.8134  -16371269.11748 -12700186.73946  21695464.0044
  21235456.0634  -21347967.40548 -16578610.43447  21235448.3634
  21331295.6414  -21283640.54048 -16444367.64046  21331289.9024
  22728823.6644  -11719417.04447  -9072410.03045  22728821.1954
 15  3 17  2 51 30.0000000  0 11G28G24G27G14G18G19G04G32G22G11G01
  24173725.8284   -6198924.46747  -4786851.71544  24173719.5044
  25227438.805    -1222486.25015
  22003949.1414  -16374354.96948 -12705555.30246  22003946.2074
  22429362.4694  -18083468.80647 -13194478.21545  22429357.6254
  23854055.4534   -9190459.66246  -6734362.45944  23854049.7544
  20772486.4384  -23837555.02648 -18523226.98447  20772479.9384
  20591585.3594  -24223278.66348 -17118468.65547  20591580.5944
  21679166.0084  -16456939.26548 -12766942.65546  21679161.9184
  21245728.8134  -21293982.32948 -16536544.13847  21245721.4064
  21317260.2814  -21357395.79548 -16501839.25346  21317254.9144
  22712017.9144  -11807732.53847  -9141227.27845  22712015.5354
 15  3 17  2 52  0.0000000  0 11G28G24G27G14G18G19G04G32G22G11G01
  24166023.2114   -6239400.75347  -4818391.66644  24166017.5234
  25220281.891    -1260089.56414
  22021253.2584  -16283419.10848 -12634696.19646  22021250.7544
  22417591.1564  -18145328.36047 -13242680.44145  22417585.6134
  23871078.0004   -9101004.77846  -6664657.36344  23871072.7664
  20780444.6954  -23795734.00248 -18490639.19047  20780437.6954
  20581753.5084  -24274946.08548 -17158728.98347  20581748.7544
  21662935.3134  -16542232.21448 -12833404.67246  21662931.0944
  21256070.6174  -21239637.04648 -16494197.17447  21256062.9654
  21303293.2894  -21430793.14948 -16559031.98246  21303287.5474
  22695244.1644  -11895879.01947  -9209912.81745  22695241.5864
 15  3 17  2 52 30.0000000  0 11G28G24G27G14G18G19G04G32G22G11G01
  24158416.1484   -6279380.13047  -4849544.44344  24158409.9454
  25213222.133
  22038625.1254  -16192130.12748 -12563561.94746  22038622.7504
  22405907.0474  -18206726.34547 -13290522.99845  22405902.6994
  23888125.9454   -9011412.21146  -6594845.00644  23888121.8244
  20788505.2504  -23753374.75848 -18457631.99747  20788498.6174
  20571996.4224  -24326218.91348 -17198681.85047  20571991.5234
  21646779.5314  -16627130.00448 -12899558.75746  21646775.5864
  21266483.5944  -21184916.66948 -16451557.92347  21266475.8834
  21289397.8674  -21503814.45548 -16615931.70146  21289391.8914
  22678505.7034  -11983838.93647  -9278452.99045  22678503.4694
 15  3 17  2 53  0.0000000  0 11G28G24G27G14G18G19G04G32G22G11G01
  24150899.6564   -6318876.97947  -4880321.19344  24150893.4384
  25206250.977    -1333823.689 4
  22056060.4924  -16100505.63248 -12492166.26346  22056058.1604
  22394309.1334  -18267676.02347 -13338016.22245  22394304.4454
  23905198.5314   -8921699.35146  -6524938.90944  23905193.4734
  20796665.3204  -23710493.35748 -18424217.94047  20796658.6884
  20562311.8754  -24377111.61848 -17238338.50947  20562306.9574
  21630696.5394  -16711646.57648 -12965415.79046  21630692.4024
  21276964.4144  -21129838.55648 -16408639.91147  21276956.9184
  21275571.0164  -21576473.30348 -16672548.97046  21275565.3954
  22661800.4614  -12071626.63547  -9346858.95545  22661798.3794
 15  3 17  2 53 30.0000000  0 11G28G24G27G14G18G19G04G32G22G11G01
  24143478.0234   -6357878.49547  -4910711.97444  24143471.8364
  25199375.156    -2945375.02715
  22073561.8134  -16008536.52748 -12420502.04346  22073559.5394
  22382798.0634  -18328163.66047 -13385149.41246  22382793.5594
  23922295.2584   -8831856.37546  -6454931.39743  23922289.9454
  20804926.7424  -23667079.69648 -18390389.13647  20804920.1334
  20552701.9614  -24427611.71348 -17277689.23847  20552697.4064
  21614688.5084  -16795769.09048 -13030965.77046  21614684.5864
  21287515.7274  -21074393.07548 -16365435.64547  21287507.7424
  21261816.1254  -21648756.64648 -16728873.64346  21261810.0634
  22645129.8444  -12159229.75747  -9415121.12845  22645128.2584
 15  3 17  2 54  0.0000000  0 11G28G24G27G14G18G19G04G32G22G11G01
  24136150.3444   -6396386.85846  -4940718.49744  24136144.4964
  25192594.336    -2981013.301 5
  22091127.6094  -15916228.08148 -12348573.40546  22091125.0474
  22371375.4534  -18388190.53047 -13431923.56246  22371370.8444
  23939415.9384   -8741887.83846  -6384826.08344  23939410.5904
  20813288.8364  -23623137.88648 -18356148.78947  20813282.1054
  20543166.6644  -24477721.44748 -17316735.77347  20543161.9694
  21598754.9774  -16879499.26147 -13096210.04346  21598750.7664
  21298135.4694  -21018585.03548 -16321948.86347  21298127.7194
  21248132.3204  -21720665.54648 -16784906.53546  21248126.6644
  22628494.6804  -12246650.28347  -9483240.98045  22628492.0904
 15  3 17  2 54 30.0000000  0 11G28G24G27G14G18G19G04G32G22G11G01
  24128915.1644   -6434401.64346  -4970340.35944  24128910.8244
  25185906.773    -3016157.59015
  22108757.4224  -15823583.36448 -12276382.73646  22108755.0084
  22360041.1094  -18447755.34947 -13478337.67146  22360036.3794
  23956560.6884   -8651796.23546  -6314624.82344  23956554.3134
  20821750.4924  -23578670.13548 -18321498.61947  20821743.8364
  20533705.2424  -24527440.57048 -17355477.94147  20533700.5044
  21582896.7664  -16962836.33848 -13161147.99246  21582892.4144
  21308823.7274  -20962417.29748 -16278181.79347  21308816.3554
  21234519.9224  -21792199.31348 -16840647.12746  21234514.6254
  22611893.4384  -12333887.96647  -9551218.36645  22611891.4454
 15  3 17  2 55  0.0000000  0 11G28G24G27G14G18G19G04G32G22G11G01
  24121775.8984   -6471920.74446  -4999576.03544  24121770.8484
  25179312.555    -3050805.251 5
  22126450.8834  -15730603.32648 -12203930.78646  22126448.3674
  22348794.8444  -18506854.86347 -13524389.21846  22348789.5004
  23973726.9454   -8561582.40846  -6244328.35244  23973721.8014
  20830312.6564  -23533676.10748 -18286438.35347  20830306.0044
  20524318.8204  -24576766.78348 -17393913.95447  20524314.0354
  21567113.7584  -17045777.60348 -13225777.51346  21567109.3054
  21319580.4304  -20905890.43548 -16234134.89547  21319573.0944
  21220979.6884  -21863354.63848 -16896092.82946  21220973.9264
  22595327.9844  -12420940.47647  -9619051.47545  22595326.2194
 15  3 17  2 55 30.0000000  0 11G28G24G27G14G18G19G04G32G22G11G01
  24114731.6564   -6508944.14547  -5028425.47644  24114725.3284
  25172813.898    -3084955.924 5
  22144207.8054  -15637291.22548 -12131220.07146  22144205.1604
  22337637.0164  -18565488.13947 -13570077.45045  22337631.9384
  23990916.0084   -8471248.82946  -6173938.57544  23990911.7854
  20838974.3914  -23488157.86848 -18250969.62447  20838967.9494
  20515007.1254  -24625700.24248 -17432043.91747  20515002.2194
  21551405.6254  -17128322.58548 -13290098.26546  21551401.5514
  21330405.1254  -20849007.21248 -16189810.31147  21330396.9804
  21207511.2034  -21934130.92648 -16951243.16846  21207505.5904
  22578797.6804  -12507807.79247  -9686740.28345  22578795.7704
 15  3 17  2 56  0.0000000  0 11G28G24G27G14G18G19G04G32G22G11G01
  24107781.1884   -6545469.36447  -5056886.68444  24107775.1134
  25166409.992    -3118607.14415
  22162027.3284  -15543648.29448 -12058251.57646  22162024.5784
  22326569.0394  -18623652.12247 -13615400.00846  22326563.7814
  24008128.9534   -8380796.31346  -6103456.12644  24008123.9964
  20847736.0704  -23442115.67648 -18215092.60647  20847729.2504
  20505770.6094  -24674238.86848 -17469866.23247  20505765.7074
  21535773.7814  -17210468.84148 -13354108.29946  21535769.4844
  21341297.1804  -20791768.41448 -16145208.66847  21341289.9884
  21194115.5554  -22004525.70348 -17006096.23546  21194109.9224
  22562303.3984  -12594487.81047  -9754283.12245  22562300.6134
 15  3 17  2 56 30.0000000  0 11G28G24G27G14G18G19G04G32G22G11G01
  24100924.8444   -6581495.41846  -5084958.92944  24100919.0824
  25160103.266    -3151756.60515
  22179909.2114  -15449676.29248 -11985026.65646  22179906.6374
  22315590.7034  -18681344.27647 -13660354.89646  22315585.8524
  24025364.4844   -8290225.88146  -6032881.78344  24025358.7704
  20856597.3134  -23395550.05048 -18178807.72147  20856590.3594
  20496609.2664  -24722381.16048 -17507379.71347  20496604.5944
  21520217.9064  -17292214.50148 -13417806.19546  21520214.2974
  21352257.5004  -20734175.16948 -16100330.81647  21352249.5904
  21180792.7424  -22074536.40048 -17060650.00646  21180787.0944
  22545844.3364  -12680978.98647  -9821678.85245  22545842.3244
 15  3 17  2 57  0.0000000  0 11G28G24G27G14G18G19G04G32G22G11G01
  24094165.2974   -6617022.31046  -5112642.26844  24094158.2274
  25153889.813    -3184404.04115
  22197853.8984  -15355378.43948 -11911547.83746  22197851.0784
  22304701.5784  -18738563.81947 -13704941.52646  22304697.1414
  24042621.1644   -8199540.16446  -5962217.60944  24042616.1134
  20865557.3914  -23348463.52948 -18142116.94147  20865550.8444
  20487523.4844  -24770127.01448 -17544584.26847  20487518.6454
  21504738.7424  -17373559.17648 -13481191.63346  21504734.6174
  21363283.5164  -20676230.43448 -16055179.08147  21363275.4694
  21167543.7974  -22144162.44648 -17114904.06646  21167537.7074
  22529421.6334  -12767281.08447  -9888927.22245  22529419.4344
 15  3 17  2 57 30.0000000  0 11G28G24G27G14G18G19G04G32G22G11G01
  24087499.5234   -6652045.00546  -5139932.64644  24087493.9574
  25147775.219
  22215860.6484  -15260753.16248 -11837813.87546  22215857.7774
  22293904.4774  -18795304.93047 -13749155.35846  22293899.9144
  24059901.1254   -8108737.09846  -5891462.00043  24059895.3984
  20874617.3834  -23300853.35348 -18105018.13347  20874611.0164
  20478514.2814  -24817471.45048 -17581476.04047  20478509.6414
  21489336.7274  -17454497.40248 -13544260.35546  21489332.5274
  21374377.0634  -20617932.21948 -16009751.91047  21374370.0274
  21154368.3054  -22213398.08448 -17168853.90646  21154362.7774
  22513035.4064  -12853389.29247  -9956024.52345  22513033.6604
 15  3 17  2 58  0.0000000  0 11G28G24G27G14G18G19G04G32G22G11G01
  24080929.7034   -6686571.49346  -5166836.37644  24080923.6484
  25141752.031    -3248183.927 5
  22233927.1414  -15165811.88248 -11763833.67946  22233924.5634
  22283196.2274  -18851574.89947 -13793002.05346  22283192.2974
  24077199.8204   -8017827.08146  -5820623.05143  24077194.3444
  20883774.9384  -23252729.70748 -18067519.20247  20883768.3554
  20469579.6564  -24864422.88748 -17618061.57047  20469575.0514
  21474009.9454  -17535037.13148 -13607018.55146  21474005.7344
  21385536.1254  -20559291.28648 -15964057.68647  21385528.4654
  21141266.3594  -22282250.56548 -17222505.18746  21141260.8794
  22496685.1414  -12939311.64147 -10022976.97945  22496683.0124
 15  3 17  2 58 30.0000000  0 11G28G24G27G14G18G19G04G32G22G11G01
  24074455.7974   -6720591.51546  -5193345.47444  24074450.3874
  25135829.281    -3279313.310 5
  22252055.7194  -15070547.31148 -11689601.57046  22252052.8284
  22272580.2974  -18907362.00248 -13836472.49346  22272575.8714
  24094521.5634   -7926802.64846  -5749694.93043  24094515.6884
  20893031.8754  -23204084.41348 -18029613.80247  20893025.2544
  20460721.9384  -24910970.97348 -17654332.79947  20460717.0234
  21458762.2424  -17615167.30048 -13669457.59746  21458757.6604
  21396761.7584  -20500300.27748 -15918090.66847  21396754.0354
  21128239.1094  -22350708.60348 -17275849.10146  21128233.3094
  22480372.1884  -13025037.45547 -10089776.30645  22480369.8284
 15  3 17  2 59  0.0000000  0 11G28G24G27G14G18G19G04G32G22G11G01
  24068078.3984   -6754107.70746  -5219461.96444  24068071.7424
  25130001.4534   -4885354.78555   -468328.97752  25129998.5904
  22270244.2734  -14974965.34248 -11615122.13846  22270241.5124
  22262056.1884  -18962667.84547 -13879567.92746  22262051.3754
  24111864.0634   -7835668.86746  -5678681.61444  24111858.4344
  20902386.9144  -23154922.29348 -17991305.66947  20902380.6764
  20451940.4224  -24957118.13648 -17690291.62347  20451935.6024
  21443591.6484  -17694890.22848 -13731579.31946  21443587.2344
  21408052.8204  -20440964.66748 -15871855.13947  21408045.3364
  21115286.5084  -22418774.21648 -17328887.23146  21115281.1724
  22464095.9064  -13110569.25147 -10156424.45445  22464093.5944
 15  3 17  2 59 30.0000000  0 11G28G24G27G14G18G19G04G32G22G11G01
  24061795.9224   -6787118.02746  -5245184.29344  24061790.9734
  25124272.7114   -4915465.41445   -491791.76342  25124268.8164
  22288492.9694  -14879067.22948 -11540396.35246  22288490.4924
  22251624.1024  -19017489.86748 -13922286.36346  22251619.3244
  24129226.9694   -7744426.46446  -5607583.68943  24129221.1484
  20911840.8054  -23105243.53448 -17952594.96847  20911834.0824
  20443235.6094  -25002862.32648 -17725936.44147  20443230.7384
  21428498.2114  -17774203.51348 -13793381.86446  21428494.1414
  21419409.6724  -20381284.89148 -15825351.42147  21419401.9224
  21102409.6484  -22486444.75348 -17381617.51946  21102404.0314
  22447857.2974  -13195904.87047 -10222919.72045  22447854.9304
 15  3 17  3  0  0.0000000  0 11G28G24G27G14G18G19G04G32G22G11G01
  24055611.0704   -6819622.34146  -5270512.34244  24055606.0704
  25118639.3754   -4945064.01845   -514855.63942  25118636.6724
  22306801.5864  -14782855.79348 -11465426.42946  22306798.8324
  22241284.2424  -19071826.61248 -13964626.65246  22241279.4184
  24146610.3754   -7653077.56846  -5536402.74043  24146604.3984
  20921392.4064  -23055050.12248 -17913483.23047  20921385.7194
  20434607.6804  -25048203.15948 -17761266.96347  20434602.6334
  21413483.8204  -17853106.26548 -13854864.51246  21413479.6994
  21430831.2734  -20321263.43148 -15778581.45047  21430823.7734
  21089607.6334  -22553718.78748 -17434038.85947  21089601.7194
  22431656.0944  -13281043.76347 -10289261.69345  22431653.2774
 15  3 17  3  0 30.0000000  0 11G28G24G27G14G18G19G04G32G22G11G01
  24049522.6804   -6851619.83746  -5295445.45544  24049516.6604
  25113104.4774   -4974149.71145   -537519.84542  25113101.6334
  22325169.0164  -14686333.44648 -11390214.23446  22325166.4924
  22231036.5554  -19125676.28348 -14006587.41046  22231031.9184
  24164013.8284   -7561623.67046  -5465139.97043  24164007.6994
  20931041.4844  -23004343.34648 -17873971.47747  20931034.9304
  20426056.2664  -25093139.85048 -17796282.56447  20426051.7234
  21398547.2424  -17931597.23448 -13916026.26146  21398543.0314
  21442317.7814  -20260902.21748 -15731546.74847  21442310.3404
  21076881.5394  -22620594.73748 -17486149.98147  21076875.6684
  22415492.2034  -13365984.92847 -10355449.60746  22415489.8834
 15  3 17  3  1  0.0000000  0 11G28G24G27G14G18G19G04G32G22G11G01
  24043530.0554   -6883108.77447  -5319982.33044  24043524.6024
  25107667.8524   -5002720.56345   -559782.85242  25107664.9454
  22343595.7584  -14589501.65848 -11314760.92546  22343593.1254
  22220882.5784  -19179035.85148 -14048166.26046  22220877.6684
  24181435.2734   -7470065.79946  -5393796.20644  24181430.1954
  20940788.0234  -22953123.82648 -17834060.18347  20940781.7464
  20417582.6254  -25137670.51648 -17830981.78747  20417577.5474
  21383689.7344  -18009674.17748 -13976865.41846  21383685.4454
  21453868.5164  -20200202.26548 -15684248.10547  21453860.8364
  21064231.8524  -22687070.05748 -17537948.94347  21064226.1844
  22399365.9694  -13450726.43647 -10421481.91945  22399363.9224
 15  3 17  3  1 30.0000000  0 11G28G24G27G14G18G19G04G32G22G11G01
  24037634.6024   -6914088.08246  -5344122.02944  24037629.0704
  25102329.4694   -5030774.49845   -581643.05042  25102326.3484
  22362080.8754  -14492362.54148 -11239068.13046  22362078.0394
  22210822.1174  -19231904.02047 -14089362.21046  22210817.4304
  24198877.6484   -7378405.36746  -5322372.53843  24198872.7584
  20950632.2114  -22901392.48648 -17793750.06747  20950625.8244
  20409185.8754  -25181794.15048 -17865363.83947  20409181.2584
  21368911.4694  -18087335.68348 -14037380.85846  21368906.7734
  21465483.6094  -20139165.17648 -15636686.73047  21465475.6054
  21051658.2504  -22753142.66148 -17589434.08347  21051652.9614
  22383278.7894  -13535266.89247 -10487357.59246  22383277.0904
 15  3 17  3  2  0.0000000  0 11G28G24G27G14G18G19G04G32G22G11G01
  24031836.6644   -6944557.03746  -5367864.09244  24031830.9414
  25097090.1024   -5058310.91845   -603099.96043  25097086.2704
  22380623.6414  -14394918.64648 -11163137.85146  22380620.7544
  22200855.8364  -19284278.89148 -14130173.77946  22200850.9454
  24216340.5314   -7286644.14946  -5250870.33343  24216334.4774
  20960573.3524  -22849151.16348 -17753042.56247  20960566.6684
  20400867.2504  -25225509.76148 -17899427.94847  20400862.6804
  21354211.9774  -18164580.72948 -14097571.78046  21354207.8674
  21477162.3754  -20077793.10048 -15588864.33647  21477154.5314
  21039162.4774  -22818811.03248 -17640604.24047  21039156.8284
  22367229.3594  -13619605.48947 -10553075.96446  22367227.7194
 15  3 17  3  2 30.0000000  0 11G28G24G27G14G18G19G04G32G22G11G01
  24026135.4844   -6974514.53546  -5391207.62843  24026129.6024
  25091948.9224   -5085328.48945   -624152.63243  25091944.7384
  22399223.7194  -14297171.92447 -11086971.60946  22399221.5634
  22190982.8134  -19336158.43848 -14170599.38246  22190977.8914
  24233820.3444   -7194783.52346  -5179290.65043  24233815.0004
  20970611.8284  -22796400.55248 -17711938.21347  20970605.1684
  20392626.2034  -25268816.24048 -17933173.25147  20392621.2544
  21339592.3834  -18241407.59248 -14157436.83446  21339588.3404
  21488904.5864  -20016087.60148 -15540782.14047  21488896.9304
  21026743.3284  -22884073.43948 -17691458.07947  21026737.7424
  22351219.2344  -13703740.74947 -10618635.88946  22351217.0044
 15  3 17  3  3  0.0000000  0 11G28G24G27G14G18G19G04G32G22G11G01
  24020532.2814   -7003959.68046  -5414151.90943  24020525.2814
  25086906.0164   -5111825.56545   -644799.73343  25086902.2194
  22417881.8204  -14199124.35148 -11010570.92146  22417879.4064
  22181205.1644  -19387540.31148 -14210637.19246  22181200.5234
  24251318.9144   -7102824.62046  -5107634.35143  24251313.9884
  20980746.6174  -22743141.79948 -17670437.91447  20980740.1094
  20384463.2504  -25311712.20149 -17966598.67547  20384458.6054
  21325052.3914  -18317814.59048 -14216974.71146  21325048.5984
  21500709.9224  -19954049.89748 -15492441.07647  21500702.3204
  21014401.8674  -22948927.34048 -17741993.58247  21014395.9104
  22335247.7664  -13787671.09847 -10684036.15146  22335245.0394
 15  3 17  3  3 30.0000000  0 11G28G24G27G14G18G19G04G32G22G11G01
  24015027.5474   -7032892.28647  -5436696.77544  24015020.4414
  25081963.1884   -5137800.89845   -665040.24843  25081959.6644
  22436596.5474  -14100778.72948 -10933937.98546  22436593.7934
  22171522.7504  -19438422.99448 -14250286.01646  22171518.1094
  24268836.4224   -7010769.17446  -5035902.89643  24268831.5984
  20990977.6334  -22689376.86848 -17628543.17747  20990971.0514
  20376378.5474  -25354197.27548 -17999703.92647  20376373.8524
  21310593.0474  -18393800.84848 -14276184.75146  21310588.5904
  21512577.8914  -19891682.33848 -15443842.98047  21512570.6024
  21002138.4774  -23013371.81248 -17792210.04647  21002132.7194
  22319315.6024  -13871395.95447 -10749276.28046  22319313.0314
 15  3 17  3  4  0.0000000  0 11G28G24G27G14G18G19G04G32G22G11G01
  24009618.8054   -7061310.97246  -5458841.17844  24009612.2034
  25077118.5704   -5163253.36645   -684873.34243  25077116.4384
  22455367.1484  -14002137.00547 -10857074.33746  22455365.1054
  22161935.2814  -19488804.76847 -14289544.49846  22161930.7544
  24286373.0084   -6918618.95046  -4964097.53443  24286367.8444
  21001304.9924  -22635106.77248 -17586254.81247  21001298.1994
  20368372.6094  -25396270.02948 -18032487.88347  20368367.9614
  21296213.4844  -18469364.82548 -14335065.72846  21296208.9064
  21524508.7344  -19828986.49048 -15394989.08347  21524501.3914
  20989953.3204  -23077404.54748 -17842105.68447  20989947.9924
  22303422.3204  -13954913.76847 -10814355.08746  22303420.1334
 15  3 17  3  4 30.0000000  0 11G28G24G27G14G18G19G04G32G22G11G01
  24004309.1724   -7089214.70147  -5480584.35744  24004302.9694
  25072375.7344   -5188181.37045   -704297.82943  25072373.0394
  22474194.1174  -13903201.37447 -10779981.66246  22474192.0004
  22152443.6254  -19538683.75647 -14328411.23045  22152438.2894
  24303925.8134   -6826375.23046  -4892219.37643  24303920.3524
  21011727.8984  -22580332.56048 -17543573.62247  21011721.6054
  20360445.1484  -25437929.59948 -18064949.89347  20360440.4414
  21281914.5554  -18544504.98947 -14393616.47646  21281910.5394
  21536501.2814  -19765964.09048 -15345880.72347  21536493.4414
  20977847.1334  -23141023.96748 -17891679.25047  20977841.6684
  22287569.2424  -14038223.25347 -10879271.55246  22287567.1484
 15  3 17  3  5  0.0000000  0 11G28G24G27G14G18G19G04G32G22G11G01
  23999097.6024   -7116602.81747  -5501925.70744  23999091.5784
  25067731.7274   -5212584.09345   -723312.90543  25067729.3524
  22493076.4924  -13803974.09847 -10702661.73146  22493074.0204
  22143048.2274  -19588058.13648 -14366884.74146  22143043.1954
  24321496.5704   -6734039.02446  -4820269.07843  24321490.9454
  21022247.2664  -22525055.87248 -17500500.90847  21022240.3874
  20352596.2664  -25479174.59148 -18097088.83547  20352591.1724
  21267697.0314  -18619220.11147 -14451836.01646  21267692.3404
  21548556.0554  -19702616.57748 -15296519.02547  21548547.9654
  20965820.0784  -23204227.89848 -17940929.06047  20965814.3164
  22271755.6414  -14121323.13147 -10944024.69446  22271753.4344
 15  3 17  3  5 30.0000000  0 11G28G24G27G14G18G19G04G32G22G11G01
  23993984.5164   -7143474.50047  -5522864.63944  23993978.6994
  25063188.6564   -5236460.11445   -741917.61043  25063186.0944
  22512013.8524  -13704457.43047 -10625116.30746  22512011.6134
  22133748.6484  -19636925.96948 -14404963.54946  22133744.0084
  24339085.4224   -6641612.26146  -4748248.26243  24339080.1024
  21032861.0554  -22469278.20748 -17457037.80647  21032854.4614
  20344826.8914  -25520004.29349 -18128904.17847  20344821.7664
  21253560.0634  -18693508.79148 -14509723.27846  21253555.6214
  21560672.2814  -19638946.12948 -15246905.69746  21560664.5744
  20953871.8914  -23267014.79748 -17989853.91647  20953865.7974
  22255982.8284  -14204212.23847 -11008613.60046  22255980.2894
 15  3 17  3  6  0.0000000  0 11G28G24G27G14G18G19G04G32G22G11G01
  23988969.5864   -7169828.93847  -5543400.56244  23988962.9534
  25058745.5704   -5259807.89745   -760110.65743  25058742.7074
  22531006.5004  -13604653.34847 -10547346.91646  22531004.2344
  22124546.4534  -19685285.17547 -14442646.03246  22124541.6374
  24356691.0004   -6549096.07046  -4676157.76443  24356685.8754
  21043570.8594  -22413000.27148 -17413184.88747  21043563.5554
  20337136.1954  -25560417.51248 -18160394.99347  20337131.6094
  21239505.0864  -18767369.41748 -14567276.96546  21239500.5984
  21572849.4144  -19574954.03348 -15197041.73846  21572841.7344
  20942003.7894  -23329382.21748 -18038451.90447  20941998.0434
  22240249.6414  -14286889.04447 -11073037.06646  22240247.3484
 15  3 17  3  6 30.0000000  0 11G28G03G27G14G18G19G04G32G22G11G01
  23984052.1644   -7195665.75547  -5563533.11744  23984046.1644
  25013579.2814      86674.20556    118150.09453  25013577.8094
  22550052.3204  -13504564.63147 -10469355.73746  22550050.2114
  22115441.1644  -19733134.93848 -14479931.52946  22115436.1804
  24374311.9694   -6456492.22046  -4603998.96943  24374306.8674
  21054374.1804  -22356224.15748 -17368943.77647  21054367.3954
  20329525.4454  -25600413.36248 -18191560.59547  20329520.4884
  21225531.2114  -18840801.22948 -14624496.53746  21225526.9774
  21585087.4774  -19510642.39248 -15146928.77846  21585079.9344
  20930215.5164  -23391329.29648 -18086722.34447  20930210.3014
  22224556.9844  -14369352.67947 -11137294.43646  22224555.1094
 15  3 17  3  7  0.0000000  0 11G28G03G27G14G18G19G04G32G22G11G01
  23979237.1094   -7220972.31947  -5583252.55044  23979231.0984
  24992872.1024     -22143.50646     33357.05443  24992870.2114
  22569154.4224  -13404181.61847 -10391135.23746  22569152.1604
  22106434.8834  -19780461.27348 -14516809.17546  22106430.3484
  24391953.2664   -6363790.40846  -4531763.77743  24391947.4964
  21065275.3594  -22298939.05748 -17324306.05447  21065268.5634
  20321996.4064  -25639979.24448 -18222391.13847  20321991.2464
  21211641.8204  -18913790.97248 -14681371.61946  21211637.3054
  21597388.3674  -19446001.25948 -15096559.06946  21597380.4184
  20918510.4144  -23452841.99648 -18134654.31047  20918504.7704
  22208908.0084  -14451590.08447 -11201375.51146  22208905.6024
 15  3 17  3  7 30.0000000  0 11G28G03G27G14G18G19G04G32G22G11G01
  23974516.6254   -7245776.50547  -5602580.46444  23974510.9104
  24972176.1334    -130904.72346    -51391.95043  24972173.9844
  22588307.0084  -13303535.16647 -10312709.45846  22588304.4384
  22097523.4614  -19827291.09448 -14553299.92246  22097518.9774
  24409606.9614   -6271020.94946  -4459475.92443  24409601.7034
  21076267.6334  -22241175.32148 -17279295.36447  21076260.8164
  20314543.8134  -25679142.55648 -18252908.00147  20314538.9734
  21197831.4844  -18986365.97748 -14737923.56146  21197826.9884
  21609746.1564  -19381060.82148 -15045956.13447  21609738.2384
  20906882.2114  -23513947.21648 -18182268.76447  20906876.4304
  22193296.4304  -14533628.56547 -11265301.58846  22193294.5354
 15  3 17  3  8  0.0000000  0 11G28G03G27G14G18G19G04G32G22G11G01
  23969894.9454   -7270061.61547  -5621503.89744  23969890.1564
  24951493.1334    -239592.19446   -136083.49543  24951491.7854
  22607512.1804  -13202611.67147 -10234067.81046  22607510.1414
  22088709.6484  -19873606.76447 -14589390.03146  22088705.0744
  24427276.4384   -6178168.95146  -4387123.74343  24427271.5314
  21087353.7504  -22182918.56348 -17233900.50547  21087346.7504
  20307170.9304  -25717886.65148 -18283098.19447  20307166.2584
  21184103.1644  -19058509.06648 -14794138.92446  21184098.4304
  21622163.3284  -19315806.87648 -14995108.91146  21622155.9454
  20895335.1094  -23574627.38448 -18229551.99847  20895329.0314
  22177726.3674  -14615451.01247 -11329059.33546  22177723.7934
 15  3 17  3  8 30.0000000  0 11G28G03G27G14G18G19G04G32G22G11G01
  23965374.2974   -7293818.51847  -5640015.80544  23965368.7894
  24930826.0784    -348195.97446   -220709.82443  24930825.8204
  22626771.0234  -13101404.82047 -10155205.36046  22626769.3524
  22079995.7664  -19919398.12247 -14625071.59346  22079991.3484
  24444962.2424   -6085227.47846  -4314701.88343  24444957.4654
  21098534.6804  -22124161.39548 -17188115.71547  21098528.1454
  20299879.7504  -25756201.65248 -18312954.03547  20299874.8914
  21170458.5164  -19130210.30648 -14850009.99646  21170454.2464
  21634641.6334  -19250232.71948 -14944012.18746  21634634.2034
  20883871.2584  -23634872.08248 -18276495.91047  20883865.1604
  22162198.8054  -14697047.44147 -11392640.96746  22162196.8014
 15  3 17  3  9  0.0000000  0 11G28G03G27G14G18G19G04G32G22G11G01
  23960953.5474   -7317049.62446  -5658117.99244  23960947.7814
  24910174.7274    -456718.11846   -305272.47543  24910174.3594
  22646083.2424  -12999920.07647 -10076126.37246  22646080.6294
  22071381.8984  -19964666.63248 -14660345.73646  22071376.7274
  24462664.0474   -5992201.08646  -4242213.80943  24462659.5634
  21109810.2424  -22064908.52148 -17141944.66347  21109803.8444
  20292670.0554  -25794089.97148 -18342477.39847  20292665.0704
  21156898.2974  -19201471.79748 -14905538.43846  21156893.7344
  21647180.5474  -19184343.27348 -14892669.75947  21647172.2974
  20872489.2974  -23694682.75848 -18323101.62247  20872483.6724
  22146714.4924  -14778419.88547 -11456048.05346  22146712.0594
 15  3 17  3  9 30.0000000  0 11G28G03G27G14G18G19G04G32G22G11G01
  23956631.9694   -7339762.63446  -5675816.45844  23956625.5164
  24889537.6094    -565165.53745   -389776.97243  24889536.8484
  22665445.9614  -12898168.12147  -9996839.15546  22665443.7074
  22062865.4064  -20009419.02948 -14695217.70046  22062860.6954
  24480380.6564   -5899099.54845  -4169667.17443  24480375.9104
  21121178.2664  -22005169.92548 -17095395.11947  21121171.5434
  20285539.6724  -25831558.77149 -18371673.86547  20285534.8834
  21143419.7664  -19272300.41548 -14960729.53446  21143415.3594
  21659776.4844  -19118148.59848 -14841089.49146  21659769.0434
  20861188.9224  -23754065.95148 -18369374.24247  20861183.5234
  22131271.4924  -14859575.35347 -11519286.05246  22131268.4654
 15  3 17  3 10  0.0000000  0 11G28G03G27G14G18G19G04G32G22G11G01
  23952409.1724   -7361950.46646  -5693105.63544  23952403.9844
  24868916.9144    -673530.20746   -474216.98943  24868916.0044
  22684860.5164  -12796144.62547  -9917340.35846  22684857.9264
  22054449.2734  -20053647.11048 -14729681.11246  22054444.4494
  24498113.4694   -5805917.49945  -4097057.81843  24498108.1684
  21132639.2814  -21944940.35148 -17048462.99347  21132633.0664
  20278491.0164  -25868600.62148 -18400537.64747  20278486.2814
  21130025.4924  -19342688.50848 -15015577.37646  21130020.9964
  21672432.2114  -19051643.69748 -14789267.51046  21672424.5904
  20849971.7734  -23813013.40848 -18415307.31947  20849965.7464
  22115870.3914  -14940506.02547 -11582348.91346  22115868.2274
 15  3 17  3 10 30.0000000  0 11G28G03G27G14G18G19G04G32G22G11G01
  23948286.6094   -7383617.08547  -5709988.69144  23948280.6334
  24848311.4844    -781815.58546   -558595.22343  24848309.0314
  22704325.4534  -12693856.57747  -9837635.41546  22704322.7074
  22046131.7974  -20097354.06648 -14763738.45846  22046127.3634
  24515858.8444   -5712661.20245  -4024390.65143  24515854.5044
  21144193.2034  -21884225.86348 -17001153.01847  21144186.4384
  20271522.7114  -25905219.36648 -18429071.73747  20271518.1254
  21116713.9064  -19412639.49348 -15070084.60446  21116709.4924
  21685145.3054  -18984835.23848 -14737208.97746  21685137.6804
  20838836.7504  -23871527.70548 -18460902.87147  20838830.9964
  22100511.8594  -15021215.31747 -11645239.24846  22100509.8094
 15  3 17  3 11  0.0000000  0 11G28G03G27G14G18G19G04G32G22G11G01
  23944262.8204   -7404758.64746  -5726462.65544  23944257.0274
  24827721.6254    -890016.69746   -642907.80943  24827718.4694
  22723840.3984  -12591302.79147  -9757723.41246  22723838.0164
  22037914.9844  -20140534.55948 -14797385.56446  22037910.4574
  24533619.5234   -5619328.63846  -3951664.04443  24533614.2584
  21155838.9064  -21823024.77648 -16953463.86747  21155832.6374
  20264635.6174  -25941410.38548 -18457272.53647  20264630.8874
  21103486.9144  -19482148.61948 -15124247.53346  21103482.4964
  21697916.7814  -18917721.75948 -14684912.77446  21697908.9224
  20827784.7734  -23929604.01948 -18506157.13647  20827779.4064
  22085196.5314  -15101698.36647 -11707953.28846  22085194.4304
 15  3 17  3 11 30.0000000  0 11G28G03G27G14G18G19G04G32G22G11G01
  23940340.3364   -7425375.34046  -5742527.60344  23940334.3134
  24807148.0394    -998133.12946   -727154.40343  24807145.5004
  22743406.2664  -12488486.38247  -9677606.74946  22743403.5664
  22029798.2894  -20183188.11748 -14830622.07946  22029793.5044
  24551395.5864   -5525921.93345  -3878879.58142  24551388.6844
  21167577.5704  -21761339.33948 -16905397.30347  21167570.9304
  20257830.2114  -25977173.74948 -18485140.09547  20257825.2934
  21090343.7584  -19551215.53248 -15178065.88646  21090339.5594
  21710745.4694  -18850304.96648 -14632380.19746  21710737.5514
  20816817.1884  -23987241.21448 -18551069.24447  20816811.3244
  22069924.0864  -15181954.81147 -11770490.77046  22069922.0124
 15  3 17  3 12  0.0000000  0 11G28G03G27G14G18G19G04G32G22G11G01
  23936516.7664   -7445466.54247  -5758183.11944  23936510.0124
  24786589.8364   -1106163.69246   -811334.06843  24786587.9844
  22763020.5784  -12385409.75247  -9597287.31846  22763018.9734
  22021782.3054  -20225313.14148 -14863446.75346  22021777.1134
  24569183.3674   -5432442.49946  -3806038.52142  24569177.4064
  21179407.6414  -21699171.27848 -16856954.67247  21179401.2704
  20251106.1724  -26012508.34548 -18512673.53247  20251101.9414
  21077285.0634  -19619839.20348 -15231538.84346  21077280.8634
  21723631.6954  -18782587.15948 -14579613.09046  21723624.5084
  20805933.1804  -24044437.47648 -18595637.76047  20805927.5744
  22054695.2814  -15261983.43447 -11832850.73046  22054692.9694
 15  3 17  3 12 30.0000000  0 11G28G03G27G14G18G19G04G32G22G11G01
  23932793.5234   -7465031.29246  -5773428.37944  23932787.2424
  24766049.1564   -1214106.39046   -895445.27143  24766047.6254
  22782684.7344  -12282074.59047  -9516766.46146  22782682.5044
  22013866.9844  -20266907.32648 -14895857.78446  22013862.3914
  24586985.1174   -5338891.38446  -3733141.62443  24586979.7894
  21191329.7504  -21636521.21048 -16808136.45647  21191323.2854
  20244464.1884  -26047412.60848 -18539871.64547  20244459.5514
  21064310.9774  -19688017.74248 -15284664.94146  21064306.6484
  21736575.0784  -18714569.45848 -14526612.29746  21736567.6994
  20795133.4304  -24101190.67548 -18639861.02747  20795127.6484
  22039510.2974  -15341782.29147 -11895031.66746  22039507.6644
 15  3 17  3 13  0.0000000  0 11G28G03G27G14G18G19G04G32G22G11G01
  23929170.9304   -7484069.33346  -5788263.21144  23929165.0434
  24745524.1644   -1321960.34946   -979487.26343  24745523.7894
  22802397.9614  -12178483.60947  -9436046.25046  22802395.3244
  22006053.2114  -20307969.60748 -14927854.34046  22006048.3834
  24604801.4924   -5245270.33946  -3660190.24643  24604796.0204
  21203342.8834  -21573391.44148 -16758944.44447  21203336.6054
  20237904.1024  -26081886.18748 -18566734.17347  20237899.2234
  21051422.1174  -19755750.52248 -15337443.73246  21051417.5704
  21749575.2894  -18646254.12548 -14473379.57046  21749567.9774
  20784418.3054  -24157499.07348 -18683737.70147  20784412.7074
  22024368.4614  -15421350.43447 -11957032.81446  22024366.3164
 15  3 17  3 13 30.0000000  0 11G28G03G27G14G18G19G04G32G22G11G01
  23925648.9064   -7502580.26247  -5802687.33944  23925642.7854
  24725016.9144   -1429724.44446  -1063459.30243  24725016.8444
  22822158.5634  -12074639.47547  -9355128.76246  22822156.0004
  21998340.8594  -20348498.97547 -14959435.65646  21998335.8524
  24622629.9144   -5151581.04646  -3587185.66942  24622624.8284
  21215447.1484  -21509783.75448 -16709380.02947  21215440.4774
  20231426.1644  -26115928.37148 -18593260.54347  20231421.5554
  21038617.8914  -19823036.54348 -15389874.38546  21038613.2934
  21762631.6024  -18577643.13548 -14419916.46946  21762624.1954
  20773788.1954  -24213361.66948 -18727266.99147  20773782.2934
  22009271.2894  -15500686.96647 -12018853.47846  22009269.2344
 15  3 17  3 14  0.0000000  0 11G28G03G27G14G18G19G04G32G22G11G01
  23922226.1174   -7520563.89847  -5816700.60144  23922220.0394
  24704529.0704   -1537397.06446  -1147360.04343  24704527.4064
  22841967.3204  -11970544.04847  -9274015.47846  22841964.7344
  21990730.0084  -20388493.63248 -14990600.29146  21990725.1094
  24640471.1884   -5057824.31046  -3514128.45343  24640466.0314
  21227641.8984  -21445699.35648 -16659444.15147  21227635.2584
  20225030.5474  -26149537.71348 -18619449.64547  20225025.9454
  21025899.2734  -19889874.28548 -15441955.72346  21025894.8754
  21775743.8834  -18508737.70548 -14366223.93246  21775735.9384
  20763243.1254  -24268776.34648 -18770447.25547  20763237.3054
  21994218.7344  -15579790.09847 -12080492.26546  21994216.3634
 15  3 17  3 14 30.0000000  0 11G28G03G27G14G18G19G04G32G22G11G01
  23918904.3914   -7538019.88446  -5830302.67444  23918898.3484
  24684057.3134   -1644977.09946  -1231188.65743  24684055.5434
  22861823.2424  -11866200.02747  -9192708.49946  22861820.9924
  21983221.1644  -20427952.27248 -15021347.26446  21983216.5204
  24658325.3054   -4964001.66945  -3441019.97843  24658319.8284
  21239927.0084  -21381140.15748 -16609138.30047  21239920.8634
  20218716.9924  -26182713.63649 -18645301.01447  20218712.5004
  21013265.7274  -19956262.94348 -15493687.11246  21013261.5204
  21788911.5474  -18439539.93748 -14312303.60146  21788904.1524
  20752783.4534  -24323741.62248 -18813277.34047  20752777.8914
  21979210.4384  -15658658.91147 -12141948.47446  21979208.1414
 15  3 17  3 15  0.0000000  0 11G28G03G27G14G18G19G04G32G22G11G01
  23915683.4774   -7554946.88246  -5843492.51344  23915677.0784
  24663602.6414   -1752462.44446  -1314943.49443  24663601.7304
  22881725.6884  -11761608.84147  -9111208.89845  22881723.2464
  21975814.8444  -20466872.73248 -15051674.87046  21975809.8484
  24676191.1724   -4870113.66345  -3367860.58642  24676187.2664
  21252302.3524  -21316106.96648 -16558463.09647  21252296.0164
  20212486.5784  -26215454.42648 -18670813.30747  20212482.4534
  21000718.3444  -20022200.58248 -15545067.08746  21000713.8054
  21802135.0314  -18370050.66548 -14258156.11746  21802127.4494
  20742409.8204  -24378254.82448 -18855755.15547  20742404.0474
  21964247.1724  -15737291.15847 -12203220.34646  21964244.8484
 15  3 17  3 15 30.0000000  0 11G28G03G27G14G18G19G04G32G22G11G01
  23912562.8914   -7571345.21747  -5856270.39144  23912557.4344
  24643167.7194   -1859852.41746  -1398624.01743  24643166.9534
  22901675.5394  -11656773.55747  -9029519.07646  22901673.4224
  21968510.7114  -20505254.03848 -15081582.36246  21968505.9694
  24694069.2274   -4776162.65845  -3294652.07542  24694065.0744
  21264767.6724  -21250602.24448 -16507420.47447  21264761.2584
  20206339.0084  -26247759.85649 -18695986.36647  20206334.1724
  20988256.4844  -20087686.84348 -15596095.31446  20988252.3634
  21815413.4224  -18300272.28648 -14203783.37046  21815405.5784
  20732122.8134  -24432314.87148 -18897879.86747  20732116.8594
  21949328.9534  -15815686.35347 -12264307.50446  21949326.7974
 15  3 17  3 16  0.0000000  0 11G28G03G27G14G18G19G04G32G22G11G01
  23909543.2114   -7587214.17947  -5868635.82744  23909536.6054
  24622749.6724   -1967145.88146  -1482229.29143  24622749.7504
  22921671.4774  -11551696.58547  -8947640.95945  22921669.7734
  21961310.1024  -20543095.27548 -15111069.02646  21961305.3714
  24711959.7424   -4682149.87945  -3221395.34742  24711955.4884
  21277322.3754  -21184627.48548 -16456011.59047  21277315.6024
  20200275.0164  -26279629.19148 -18720819.60347  20200270.2034
  20975881.2664  -20152720.65648 -15646770.99546  20975876.5274
  21828746.4614  -18230206.75248 -14149186.85646  21828738.4884
  20721922.0864  -24485920.11848 -18939650.19247  20721916.1524
  21934456.1414  -15893843.09147 -12325208.83746  21934453.9264
 15  3 17  3 16 30.0000000  0 11G28G03G27G14G18G19G04G32G22G11G01
  23906623.8914   -7602552.92847  -5880588.09644  23906618.2304
  24602350.5944   -2074340.48946  -1565757.55243  24602350.7234
  22941712.4224  -11446379.36347  -8865575.63945  22941710.1684
  21954212.1024  -20580393.99448 -15140132.94146  21954207.3524
  24729861.3134   -4588075.76445  -3148090.94142  24729858.0204
  21289966.2344  -21118183.54048 -16404237.10847  21289959.6334
  20194293.4774  -26311060.58548 -18745311.59947  20194289.0864
  20963591.9694  -20217300.05248 -15697092.58146  20963587.5634
  21842133.9454  -18159854.83948 -14094367.18546  21842126.1414
  20711808.1804  -24539068.19448 -18981064.28747  20711802.1914
  21919629.3674  -15971759.28247 -12385922.73546  21919626.9804
 15  3 17  3 17  0.0000000  0 11G28G03G27G14G18G19G04G32G22G11G01
  23903805.2274   -7617362.08447  -5892127.64944  23903800.7074
  24581971.1414   -2181436.02146  -1649208.60443  24581971.1294
  22961798.9144  -11340825.27347  -8783325.72745  22961796.5394
  21947218.2194  -20617149.78147 -15168773.79246  21947213.0004
  24747775.5234   -4493942.89945  -3074740.75042  24747770.6374
  21302698.7814  -21051273.13848 -16352099.14547  21302692.6844
  20188395.9144  -26342054.18248 -18769462.45647  20188391.0554
  20951389.4694  -20281424.98348 -15747060.03447  20951385.0744
  21855575.7344  -18089219.21848 -14039326.45346  21855567.8834
  20701781.3754  -24591758.60748 -19022121.75247  20701775.4964
  21904848.4304  -16049434.62048 -12446448.97146  21904845.8324
 15  3 17  3 17 30.0000000  0 11G28G03G27G14G18G19G04G32G22G11G01
  23901089.2344   -7631641.08047  -5903254.10744  23901083.2974
  24561612.0634   -2288430.78146  -1732581.14843  24561609.9344
  22981929.9694  -11235036.24447  -8700892.72245  22981927.7384
  21940327.1884  -20653360.93248 -15196990.25246  21940322.1764
  24765699.0314   -4399751.93145  -3001345.13942  24765694.4454
  21315519.6804  -20983897.43248 -16299598.61547  21315513.4064
  20182581.5864  -26372608.55748 -18793271.05447  20182576.5944
  20939273.4614  -20345094.01348 -15796672.24346  20939269.6724
  21869071.0394  -18018301.27648 -13984065.73146  21869062.9844
  20691842.1564  -24643988.96948 -19062820.73947  20691836.4774
  21890113.1954  -16126867.32548 -12506786.11546  21890110.9024
 15  3 17  3 18  0.0000000  0 11G28G03G27G14G18G19G04G32G22G11G01
  23898472.0394   -7645389.59147  -5913967.26244  23898466.7584
  24541270.5474   -2395323.43146  -1815874.11743  24541269.2234
  23002104.6954  -11129014.70047  -8618278.57645  23002103.3054
  21933540.0164  -20689026.18648 -15224781.33446  21933535.4534
  24783632.6024   -4305504.10045  -2927905.41742  24783630.7734
  21328429.2894  -20916058.34548 -16246736.99847  21328422.8484
  20176850.8364  -26402722.93848 -18816736.79447  20176845.8244
  20927244.7974  -20408306.24848 -15845928.53147  20927240.3714
  21882619.3674  -17947102.90947 -13928586.48246  21882611.6214
  20681990.8984  -24695757.62648 -19103159.95047  20681985.1644
  21875424.4534  -16204056.19847 -12566933.28246  21875422.3014
 15  3 17  3 18 30.0000000  0 11G28G03G27G14G18G19G04G32G22G11G01
  23895957.6414   -7658606.58347  -5924266.22844  23895951.9304
  24520949.5864   -2502112.47946  -1899086.31743  24520948.6174
  23022324.0944  -11022762.69147  -8535484.85045  23022321.4884
  21926857.6254  -20724143.88048 -15252145.75546  21926852.6254
  24801578.7974   -4211200.91845  -2854422.42942  24801575.6174
  21341426.3594  -20847757.55248 -16193515.62747  21341420.1134
  20171204.4144  -26432396.19149 -18839858.80147  20171199.4264
  20915303.0554  -20471060.25748 -15894827.75247  20915298.6334
  21896221.1024  -17875625.32348 -13872889.66446  21896213.6604
  20672228.0234  -24747062.65948 -19143137.89747  20672222.3204
  21860783.2114  -16280999.56347 -12626889.13846  21860780.5784
 15  3 17  3 19  0.0000000  0 11G28G03G27G14G18G19G04G32G22G11G01
  23893544.1484   -7671292.86047  -5934151.63644  23893537.3014
  24500648.9304   -2608797.07946  -1982217.17144  24500646.5744
  23042586.8054  -10916283.06747  -8452513.73145  23042583.8754
  21920278.8284  -20758713.52348 -15279083.11746  21920274.3594
  24819535.359   -95491203.68415
  21354511.3914  -20778997.04748 -16139936.02447  21354504.8954
  20165641.6254  -26461628.09948 -18862636.89847  20165636.6804
  20903448.7894  -20533355.57448 -15943369.53447  20903444.1564
  21909875.2664  -17803871.13048 -13816977.30846  21909868.1454
  20662553.2894  -24797903.29348 -19182753.98447  20662547.6724
  21846187.9304  -16357696.60947 -12686653.06346  21846185.2774
 15  3 17  3 19 30.0000000  0 11G28G03G27G14G18G19G04G32G22G11G01
  23891230.6724   -7683447.41647  -5943622.76744  23891224.9964
  24480366.7424   -2715374.72946  -2065264.65844  24480365.7544
  23062891.5704  -10809577.08947  -8369366.25645  23062890.0474
  21913805.6414  -20792732.61048 -15305591.47946  21913800.7814
  24837500.609   -96972212.95215
  21367683.3444  -20709777.40248 -16085998.65847  21367676.5354
  20160163.2194  -26490416.54749 -18885069.45647  20160158.6844
  20891681.8984  -20595190.08748 -15991552.26146  20891677.5004
  21923582.2114  -17731840.84947 -13760849.83346  21923574.6484
  20652967.8204  -24848276.38248 -19222005.73947  20652962.1644
  21831640.3674  -16434144.92047 -12746223.16946  21831637.7544
 15  3 17  3 20  0.0000000  0 11G28G03G27G14G18G19G04G32G22G11G01
  23889018.8284   -7695070.49747  -5952679.69644  23889013.7384
  24460106.3914   -2821845.38446  -2148228.79544  24460105.3404
  23083240.2114  -10702648.22847  -8286045.11745  23083237.9414
  21907437.4144  -20826200.85048 -15331670.60046  21907432.3364
  24855476.750   -96877751.168 4
  21380942.2274  -20640101.62848 -16031705.86447  21380935.4654
  20154769.6024  -26518761.72248 -18907156.60347  20154764.7814
  20880002.7584  -20656563.91748 -16039376.00346  20879998.5744
  21937341.2274  -17659536.91848 -13704509.11346  21937333.6564
  20643471.2504  -24898181.27148 -19260892.66547  20643465.5514
  21817140.2034  -16510344.17547 -12805599.19846  21817137.5044
 15  3 17  3 20 30.0000000  0 10G28G03G27G14G19G04G32G22G11G01
  23886908.9694   -7706158.23347  -5961319.46744  23886903.0124
  24439866.6564   -2928203.83946  -2231105.47544  24439865.5594
  23103630.5084  -10595495.08247  -8202549.17845  23103627.6724
  21901173.4694  -20859113.54948 -15357316.83846  21901168.8094
  21394288.5004  -20569967.37648 -15977055.81747  21394281.7624
  20149460.7194  -26546659.00548 -18928894.75647  20149455.9264
  20868412.1334  -20717472.33848 -16086837.10347  20868408.3914
  21951152.6954  -17586957.51948 -13647953.75046  21951145.3484
  20634064.7114  -24947612.72048 -19299410.67947  20634058.9924
  21802688.1484  -16586289.35247 -12864777.25546  21802685.5274
 15  3 17  3 21  0.0000000  0 11G28G03G27G14G18G19G04G32G22G11G01
  23884899.1804   -7716719.73247  -5969549.19244  23884893.2424
  24419647.5004   -3034458.12546  -2313901.00144  24419646.1174
  23124061.4454  -10488129.26047  -8118887.51945  23124059.4064
  21895015.0554  -20891478.73048 -15382536.44346  21895009.9414
  24891456.188   -96688683.21815
  21407719.7114  -20499385.93448 -15922057.30647  21407713.0354
  20144235.6954  -26574116.97148 -18950290.57047  20144231.1764
  20856908.6724  -20777923.58848 -16133941.95747  20856904.6454
  21965014.4064  -17514113.72247 -13591192.35146  21965007.1054
  20624746.7584  -24996578.49048 -19337565.81947  20624740.9534
  21788283.1174  -16661988.34547 -12923763.47646  21788280.3364
 15  3 17  3 21 30.0000000  0 11G28G03G27G14G18G19G04G32G22G11G01
  23882991.6024   -7726745.30247  -5977361.28544  23882985.5084
  24399450.0634   -3140597.38046  -2396606.88544  24399447.9964
  23144534.5634  -10380543.63547  -8035054.61045  23144532.6484
  21888962.1884  -20923285.63048 -15407321.01546  21888956.8484
  24909460.844   -96594073.549 5
  21421237.1724  -20428349.71748 -15866704.42547  21421230.8914
  20139096.3134  -26601125.20348 -18971335.94647  20139091.4654
  20845494.2734  -20837907.28048 -16180682.47247  20845489.6914
  21978928.2814  -17440997.64547 -13534218.80746  21978920.5204
  20615519.6484  -25045067.15948 -19375349.19447  20615513.7544
  21773927.0234  -16737430.26347 -12982549.37646  21773924.3954
 15  3 17  3 22  0.0000000  0 11G28G03G27G14G18G19G04G32G22G11G01
  23881185.2974   -7736238.25947  -5984758.37544  23881179.0664
  24379273.9454   -3246623.52946  -2479224.65943  24379272.1254
  23165047.9304  -10272743.81047  -7951054.79445  23165046.3164
  21883015.4304  -20954536.36747 -15431672.21646  21883010.4344
  24927472.125   -96499416.917 5
  21434840.5314  -20356863.58348 -15811000.95847  21434834.1994
  20134041.7504  -26627686.10348 -18992032.75247  20134037.1804
  20834168.2894  -20897425.60048 -16227060.35847  20834164.1484
  21992892.6884  -17367614.26448 -13477036.95446  21992885.1094
  20606382.7424  -25093080.51548 -19412762.20247  20606376.9694
  21759619.2344  -16812617.00047 -13041136.43546  21759616.8204
 15  3 17  3 22 30.0000000  0 11G28G03G27G14G18G19G04G32G22G11G01
  23879480.5394   -7745194.76947  -5991737.46744  23879474.7704
  24359119.4694   -3352531.71346  -2561750.51444  24359118.6484
  23185602.3834  -10164728.55947  -7866887.08745  23185599.8284
  21877175.3674  -20985226.36448 -15455586.48146  21877170.2074
  24945494.469
  21448529.8284  -20284926.06048 -15754945.76547  21448523.4264
  20129073.6414  -26653795.16949 -19012377.48147  20129068.5594
  20822931.2424  -20956474.13048 -16273072.17947  20822927.2274
  22006908.1564  -17293961.59347 -13419645.27746  22006900.7234
  20597337.8204  -25140613.57348 -19449800.95347  20597332.2854
  21745361.5554  -16887543.70647 -13099520.88146  21745358.7194
 15  3 17  3 23  0.0000000  0 11G28G03G27G14G18G19G04G32G22G11G01
  23877876.8204   -7753622.44147  -5998304.45444  23877870.6954
  24338987.5784   -3458328.18946  -2644189.32644  24338986.2234
  23206196.5474  -10056507.76147  -7782559.23245  23206194.8094
  21871440.7194  -21015361.72248 -15479068.55646  21871436.0514
  24963523.969
  21462303.4694  -20212546.33248 -15698545.99147  21462296.5594
  20124189.7504  -26679459.08848 -19032375.32947  20124184.8754
  20811783.4774  -21015059.52448 -16318723.10747  20811778.7034
  22020973.1094  -17220048.95847 -13362051.02646  22020965.5634
  20588382.8914  -25187672.04348 -19486469.88647  20588377.4844
  21731151.4454  -16962216.39347 -13157707.37846  21731149.0274
